{
"type": "FeatureCollection",
"crs": { "type": "name", "properties": { "name": "urn:ogc:def:crs:OGC:1.3:CRS84" } },
                                                                                
"features": [
{ "type": "Feature", "properties": { "Label": "INTERFAITH", "Name": "Interfaith Medical Center", "Address": "1545 Atlantic Avenue", "ZIP": "11213", "City": "Brooklyn", "Capacity": 287, "PFI": 1309 }, "geometry": { "type": "Point", "coordinates": [ -73.937463106611602, 40.678263331208178 ] } },
{ "type": "Feature", "properties": { "Label": "JACOBI", "Name": "Jacobi Medical Center", "Address": "1400 Pelham Parkway South", "ZIP": "10461", "City": "Bronx", "Capacity": 457, "PFI": 1165 }, "geometry": { "type": "Point", "coordinates": [ -73.847383771596782, 40.856381132086177 ] } },
{ "type": "Feature", "properties": { "Label": "JAMAICA", "Name": "Jamaica Hospital Medical Center", "Address": "8900 Van Wyck Expressway", "ZIP": "11418", "City": "Jamaica, Queens", "Capacity": 384, "PFI": 1629 }, "geometry": { "type": "Point", "coordinates": [ -73.816271063820565, 40.699991361489957 ] } },
{ "type": "Feature", "properties": { "Label": "QUEENS", "Name": "Queens Hospital Center", "Address": "82-68 164th Street", "ZIP": "11432", "City": "Jamaica, Queens", "Capacity": 261, "PFI": 1633 }, "geometry": { "type": "Point", "coordinates": [ -73.804395639320958, 40.716948739728601 ] } },
{ "type": "Feature", "properties": { "Label": "MT SINAI - QUEENS", "Name": "Mount Sinai Hospital of Queens", "Address": "25-10 30th Avenue", "ZIP": "11102", "City": "Long Island City, Queens", "Capacity": 235, "PFI": 1639 }, "geometry": { "type": "Point", "coordinates": [ -73.924857306832251, 40.768270199219351 ] } },
{ "type": "Feature", "properties": { "Label": "NY HOSP QUEENS", "Name": "New York Hospital Medical Center of Queens", "Address": "56-45 Main Street", "ZIP": "11355", "City": "Flushing, Queens", "Capacity": 439, "PFI": 1637 }, "geometry": { "type": "Point", "coordinates": [ -73.825145212194386, 40.747014773975202 ] } },
{ "type": "Feature", "properties": { "Label": "NORTH CENTRAL - BRONX", "Name": "North Central Bronx Hospital", "Address": "3424 Kossuth Avenue", "ZIP": "10467", "City": "Bronx", "Capacity": 213, "PFI": 1186 }, "geometry": { "type": "Point", "coordinates": [ -73.881070539389498, 40.880501551797302 ] } },
{ "type": "Feature", "properties": { "Label": "FOREST HILLS", "Name": "North Shore University Hospital at Forest Hills", "Address": "102-01 66th Road", "ZIP": "11375", "City": "Forest Hills, Queens", "Capacity": 312, "PFI": 1638 }, "geometry": { "type": "Point", "coordinates": [ -73.851570041163669, 40.729058325262137 ] } },
{ "type": "Feature", "properties": { "Label": "FLUSHING", "Name": "Flushing Hospital Medical Center", "Address": "4500 Parsons Blvd", "ZIP": "11355", "City": "Flushing, Queens", "Capacity": 293, "PFI": 1628 }, "geometry": { "type": "Point", "coordinates": [ -73.816642101876241, 40.755299175104362 ] } },
{ "type": "Feature", "properties": { "Label": "LINCOLN", "Name": "Lincoln Medical and Mental Health Center", "Address": "234 East 149th Street", "ZIP": "10451", "City": "Bronx", "Capacity": 347, "PFI": 1172 }, "geometry": { "type": "Point", "coordinates": [ -73.924432113086638, 40.816931144967619 ] } },
{ "type": "Feature", "properties": { "Label": "LI COLLEGE", "Name": "Long Island College Hospital", "Address": "339 Hicks Street", "ZIP": "11201", "City": "Brooklyn", "Capacity": 506, "PFI": 1302 }, "geometry": { "type": "Point", "coordinates": [ -73.997664117883275, 40.690623510689129 ] } },
{ "type": "Feature", "properties": { "Label": "NYU", "Name": "NYU Hospitals Center \/ NYU Medical Center - Tisch Hospital & Rusk Institute", "Address": "550 First Avenue", "ZIP": "10016", "City": "New York", "Capacity": 879, "PFI": 1463 }, "geometry": { "type": "Point", "coordinates": [ -73.974328971529928, 40.742076669617937 ] } },
{ "type": "Feature", "properties": { "Label": "ROOSEVELT", "Name": "St. Luke's Roosevelt Hospital Center - Roosevelt Hospital Division", "Address": "1000 Tenth Avenue", "ZIP": "10019", "City": "New York", "Capacity": 505, "PFI": 1466 }, "geometry": { "type": "Point", "coordinates": [ -73.986897325528801, 40.769686124415507 ] } },
{ "type": "Feature", "properties": { "Label": "BELLEVUE", "Name": "Bellevue Hospital Center", "Address": "462 First Avenue", "ZIP": "10016", "City": "New York", "Capacity": 912, "PFI": 1438 }, "geometry": { "type": "Point", "coordinates": [ -73.975100163951524, 40.739232775148807 ] } },
{ "type": "Feature", "properties": { "Label": "BETH ISRAEL PETRIE", "Name": "Beth Israel Medical Center - Milton and Carroll Petrie Division", "Address": "354 East16th Street", "ZIP": "10003", "City": "New York", "Capacity": 899, "PFI": 1439 }, "geometry": { "type": "Point", "coordinates": [ -73.982331223436134, 40.733331947046381 ] } },
{ "type": "Feature", "properties": { "Label": "BROOKDALE", "Name": "Brookdale University Hospital and Medical Center", "Address": "1 Brookdale Plaza", "ZIP": "11212", "City": "Brooklyn", "Capacity": 530, "PFI": 1286 }, "geometry": { "type": "Point", "coordinates": [ -73.912104085666911, 40.654692638837112 ] } },
{ "type": "Feature", "properties": { "Label": "NY COMM BROOKLYN", "Name": "New York Community Hospital of Brooklyn", "Address": "2525 Kings Highway", "ZIP": "11229", "City": "Brooklyn", "Capacity": 134, "PFI": 1293 }, "geometry": { "type": "Point", "coordinates": [ -73.948514330768234, 40.613904968266823 ] } },
{ "type": "Feature", "properties": { "Label": "BROOKLYN DOWNTOWN", "Name": "Brooklyn Hospital Center - Downtown Campus", "Address": "121 Dekalb Avenue", "ZIP": "11201", "City": "Brooklyn", "Capacity": 464, "PFI": 1288 }, "geometry": { "type": "Point", "coordinates": [ -73.978011608222602, 40.690692305935585 ] } },
{ "type": "Feature", "properties": { "Label": "SI UNIV - SOUTH", "Name": "Staten Island University Hospital - South", "Address": "375 Seguine Avenue", "ZIP": "10309", "City": "Staten Island", "Capacity": 206, "PFI": 1737 }, "geometry": { "type": "Point", "coordinates": [ -74.196143732492501, 40.516978076159354 ] } },
{ "type": "Feature", "properties": { "Label": "ELMHURST", "Name": "Elmhurst Hospital Center (City Hospital Center at Elmhurst)", "Address": "79-01 Broadway", "ZIP": "11373", "City": "Elmhurst, Queens", "Capacity": 545, "PFI": 1626 }, "geometry": { "type": "Point", "coordinates": [ -73.885663117797961, 40.745109994154667 ] } },
{ "type": "Feature", "properties": { "Label": "HARLEM", "Name": "Harlem Hospital Center", "Address": "506 Lenox Avenue", "ZIP": "10037", "City": "New York", "Capacity": 286, "PFI": 1445 }, "geometry": { "type": "Point", "coordinates": [ -73.939809278978856, 40.814124642136385 ] } },
{ "type": "Feature", "properties": { "Label": "LENOX HILL", "Name": "Lenox Hill Hospital", "Address": "100 East 77th Street", "ZIP": "10021", "City": "New York", "Capacity": 652, "PFI": 1450 }, "geometry": { "type": "Point", "coordinates": [ -73.960872473198023, 40.773639598680496 ] } },
{ "type": "Feature", "properties": { "Label": "MAIMONIDES", "Name": "Maimonides Medical Center", "Address": "4802 Tenth Avenue", "ZIP": "11219", "City": "Brooklyn", "Capacity": 705, "PFI": 1305 }, "geometry": { "type": "Point", "coordinates": [ -73.999096897269837, 40.639696859615384 ] } },
{ "type": "Feature", "properties": { "Label": "METROPOLITAN", "Name": "Metropolitan Hospital Center", "Address": "1901 First Avenue", "ZIP": "10029", "City": "New York", "Capacity": 363, "PFI": 1454 }, "geometry": { "type": "Point", "coordinates": [ -73.944934420685826, 40.785040178333119 ] } },
{ "type": "Feature", "properties": { "Label": "MT SINAI", "Name": "Mount Sinai Medical Center", "Address": "1 Gustave L. Levy Place (1189 Fifth Ave)", "ZIP": "10029", "City": "New York", "Capacity": 1171, "PFI": 1456 }, "geometry": { "type": "Point", "coordinates": [ -73.953289151352777, 40.789875016053493 ] } },
{ "type": "Feature", "properties": { "Label": "MONTEFIORE - MOSES", "Name": "Montefiore Medical Center - Henry and Lucy Moses Division", "Address": "111 East 210th Street", "ZIP": "10467", "City": "Bronx", "Capacity": 726, "PFI": 1169 }, "geometry": { "type": "Point", "coordinates": [ -73.879771942429002, 40.880444084336858 ] } },
{ "type": "Feature", "properties": { "Label": "MONTEFIORE - WEILER", "Name": "Montefiore Medical Center - Jack D. Weiler Division", "Address": "1825 Eastchester Road", "ZIP": "10461", "City": "Bronx", "Capacity": 396, "PFI": 3058 }, "geometry": { "type": "Point", "coordinates": [ -73.846164845950454, 40.849147309290743 ] } },
{ "type": "Feature", "properties": { "Label": "RICHMOND", "Name": "Richmond University Medical Center Staten Island", "Address": "355 Bard Avenue", "ZIP": "10310", "City": "Staten Island", "Capacity": 448, "PFI": 1738 }, "geometry": { "type": "Point", "coordinates": [ -74.106110724038416, 40.635737654029647 ] } },
{ "type": "Feature", "properties": { "Label": "UNIV HOSP - BKLN", "Name": "University Hospital of Brooklyn  (SUNY Downstate Medical Center)", "Address": "445 Lenox Road", "ZIP": "11203", "City": "Brooklyn", "Capacity": 376, "PFI": 1320 }, "geometry": { "type": "Point", "coordinates": [ -73.945228527608563, 40.65526990372777 ] } },
{ "type": "Feature", "properties": { "Label": "SI UNIV - NORTH", "Name": "Staten Island University Hospital - North", "Address": "475 Seaview Avenue", "ZIP": "10305", "City": "Staten Island", "Capacity": 508, "PFI": 1740 }, "geometry": { "type": "Point", "coordinates": [ -74.086268163682846, 40.584872494653673 ] } },
{ "type": "Feature", "properties": { "Label": "KINGS COUNTY", "Name": "Kings County Hospital Center", "Address": "451 Clarkson Avenue", "ZIP": "11203", "City": "Brooklyn", "Capacity": 695, "PFI": 1301 }, "geometry": { "type": "Point", "coordinates": [ -73.943123530719745, 40.656501596345358 ] } },
{ "type": "Feature", "properties": { "Label": "PENINSULA", "Name": "Peninsula Hospital Center", "Address": "51-15 Beach Channel Drive", "ZIP": "11691", "City": "Far Rockaway, Queens", "Capacity": 173, "PFI": 1632 }, "geometry": { "type": "Point", "coordinates": [ -73.782529085028017, 40.594221640207508 ] } },
{ "type": "Feature", "properties": { "Label": "NY PRESB - COLUMBIA", "Name": "New York Presbyterian Hospital - Columbia University Medical Center", "Address": "622 West 168th Street", "ZIP": "10032", "City": "New York", "Capacity": 977, "PFI": 1464 }, "geometry": { "type": "Point", "coordinates": [ -73.941412633479359, 40.840870624928264 ] } },
{ "type": "Feature", "properties": { "Label": "METHODIST", "Name": "New York Methodist Hospital", "Address": "506 Sixth Street", "ZIP": "11215", "City": "Brooklyn", "Capacity": 591, "PFI": 1306 }, "geometry": { "type": "Point", "coordinates": [ -73.979125072038443, 40.66782528809042 ] } },
{ "type": "Feature", "properties": { "Label": "NY PRESB - CORNELL", "Name": "New York Presbyterian Hospital - Weill Cornell Medical Center", "Address": "525 East 68th Street", "ZIP": "10021", "City": "New York", "Capacity": 850, "PFI": 1458 }, "geometry": { "type": "Point", "coordinates": [ -73.953920301304748, 40.764436066197874 ] } },
{ "type": "Feature", "properties": { "Label": "CONEY ISLAND", "Name": "Coney Island Hospital", "Address": "2601 Ocean Parkway", "ZIP": "11235", "City": "Brooklyn", "Capacity": 371, "PFI": 1294 }, "geometry": { "type": "Point", "coordinates": [ -73.96535947015397, 40.585222218471777 ] } },
{ "type": "Feature", "properties": { "Label": "MONTEFIORE - NORTH", "Name": "Montefiore Medical Center - North Division", "Address": "600 East 233 Street", "ZIP": "10466", "City": "Bronx", "Capacity": 369, "PFI": 1168 }, "geometry": { "type": "Point", "coordinates": [ -73.861220974880453, 40.893502091398126 ] } },
{ "type": "Feature", "properties": { "Label": "BX-LEB CONCOURSE", "Name": "Bronx-Lebanon Hospital Center - Concourse Pavilion", "Address": "1650 Grand Concourse", "ZIP": "10457", "City": "Bronx", "Capacity": 415, "PFI": 1178 }, "geometry": { "type": "Point", "coordinates": [ -73.911013921455265, 40.843488971153398 ] } },
{ "type": "Feature", "properties": { "Label": "NY PRESB - ALLEN", "Name": "New York Presbyterian Hospital - Allen Pavilion", "Address": "5141 Broadway", "ZIP": "10034", "City": "New York", "Capacity": 201, "PFI": 3975 }, "geometry": { "type": "Point", "coordinates": [ -73.913045632263604, 40.873337603748801 ] } },
{ "type": "Feature", "properties": { "Label": "NORTH SHORE LI JEWISH", "Name": "North Shore Long Island Jewish Medical Center", "Address": "270-05 76th Avenue", "ZIP": "11040", "City": "New Hyde Park, Queens", "Capacity": 880, "PFI": 1630 }, "geometry": { "type": "Point", "coordinates": [ -73.708156649005034, 40.754326081051303 ] } },
{ "type": "Feature", "properties": { "Label": "NY DOWNTOWN", "Name": "New York Downtown Hospital", "Address": "170 William Street", "ZIP": "10038", "City": "New York", "Capacity": 180, "PFI": 1437 }, "geometry": { "type": "Point", "coordinates": [ -74.004837881130811, 40.71013976185268 ] } },
{ "type": "Feature", "properties": { "Label": "KINGSBROOK JEWISH", "Name": "Kingsbrook Jewish Medical Center", "Address": "585 Schenectady Avenue", "ZIP": "11203", "City": "Brooklyn", "Capacity": 326, "PFI": 1315 }, "geometry": { "type": "Point", "coordinates": [ -73.933126880646924, 40.659203675256364 ] } },
{ "type": "Feature", "properties": { "Label": "BETH ISRAEL KINGS HWY", "Name": "Beth Israel Medical Center - Kings Highway Division", "Address": "3201 Kings Highway", "ZIP": "11234", "City": "Brooklyn", "Capacity": 212, "PFI": 1324 }, "geometry": { "type": "Point", "coordinates": [ -73.943106597573077, 40.618715808946256 ] } },
{ "type": "Feature", "properties": { "Label": "LUTHERAN", "Name": "Lutheran Medical Center", "Address": "150 55th Street", "ZIP": "11220", "City": "Brooklyn", "Capacity": 468, "PFI": 1304 }, "geometry": { "type": "Point", "coordinates": [ -74.020822600298075, 40.646385904127584 ] } },
{ "type": "Feature", "properties": { "Label": "WOODHULL", "Name": "Woodhull Medical and Mental Health Center", "Address": "760 Broadway", "ZIP": "11206", "City": "Brooklyn", "Capacity": 394, "PFI": 1692 }, "geometry": { "type": "Point", "coordinates": [ -73.942443389720808, 40.699518955788783 ] } },
{ "type": "Feature", "properties": { "Label": "ST LUKE'S", "Name": "St. Luke's Roosevelt Hospital Center - St.Luke's Hospital Division", "Address": "1111 Amsterdam Avenue", "ZIP": "10025", "City": "New York", "Capacity": 523, "PFI": 1469 }, "geometry": { "type": "Point", "coordinates": [ -73.961372949139971, 40.805503293798211 ] } },
{ "type": "Feature", "properties": { "Label": "WYCKOFF", "Name": "Wyckoff Heights Medical Center", "Address": "374 Stockholm Street", "ZIP": "11237", "City": "Brooklyn", "Capacity": 324, "PFI": 1318 }, "geometry": { "type": "Point", "coordinates": [ -73.917568869886836, 40.704182386258765 ] } },
{ "type": "Feature", "properties": { "Label": "ST. BARNABAS", "Name": "St. Barnabas Hospital", "Address": "4422 Third Avenue", "ZIP": "10457", "City": "Bronx", "Capacity": 446, "PFI": 1176 }, "geometry": { "type": "Point", "coordinates": [ -73.891192286810821, 40.853337358535114 ] } },
{ "type": "Feature", "properties": { "Label": "ST JOHN'S EPISCOPAL", "Name": "St. John's Episcopal Hospital - South Shore Division", "Address": "327 Beach 19th Street", "ZIP": "11691", "City": "Far Rockaway, Queens", "Capacity": 257, "PFI": 1635 }, "geometry": { "type": "Point", "coordinates": [ -73.753489238810388, 40.598630897549647 ] } },
{ "type": "Feature", "properties": { "Label": "WESTCHESTER SQUARE", "Name": "New York Westchester Square Medical Center", "Address": "2475 Saint Raymond's Avenue", "ZIP": "10461", "City": "Bronx", "Capacity": 205, "PFI": 1185 }, "geometry": { "type": "Point", "coordinates": [ -73.848427392961668, 40.840700448552148 ] } }
]
}
