{"type":"FeatureCollection","features":[{"type":"Feature","properties":{"name":"Animal Care and Control of New York City","website":"www.nycacc.org/getinvolved2.htm","social":"","hours":"M,8am-8pm<br/>T,8am-8pm<br/>W,8am-8pm<br/>Th,8am-8pm<br/>F,8am-8pm<br/>Sa,8am-8pm<br/>Su,8am-8pm<br/>","address":"464 East Fordham Rd. Bronx, NY 10458","phone":"(212) 788-4000","borough":"Bronx"},"geometry":{"type":"Point","coordinates":[-73.8893111,40.8605873]}},{"type":"Feature","properties":{"name":"Catholic Charities Home Base Program","website":"","social":"facebook.com/CatholicCharities?ref=ts","hours":"M,10am-4pm<br/>T,10am-4pm<br/>W,10am-4pm<br/>Th,10am-4pm<br/>F,10am-4pm<br/>Sa,by appt<br/>Su,by appt<br/>","address":"2155 Blackrock Ave Bronx, NY 10472","phone":"(718) 414-1050","borough":"Bronx"},"geometry":{"type":"Point","coordinates":[-73.8513978,40.82902060000001]}},{"type":"Feature","properties":{"name":"Citizens Advice Bureau - Bronx Works","website":"http://www.cabny.org/","social":"","hours":"M,by appt<br/>T,by appt<br/>W,by appt<br/>Th,by appt<br/>F,by appt<br/>Sa,closed<br/>Su,closed<br/>","address":"391 East 149th St, Suite 520 Bronx, NY 10455","phone":"(718) 993-8880","borough":"Bronx"},"geometry":{"type":"Point","coordinates":[-73.9181358,40.816349]}},{"type":"Feature","properties":{"name":"Dress For Success - Bronx Branch","website":"http://www.dressforsuccess.org/","social":"facebook.com/DressForSuccess","hours":"M,9am-5pm<br/>T,9am-5pm<br/>W,9am-5pm<br/>Th,9am-5pm<br/>F,9am-5pm<br/>Sa,closed<br/>Su,closed<br/>","address":"2038 Davidson Ave. Bronx, NY 10453","phone":"(718) 866-0666","borough":"Bronx"},"geometry":{"type":"Point","coordinates":[-73.9085322,40.8536538]}},{"type":"Feature","properties":{"name":"Goodwill Thrift Shop - 149th St Store","website":"http://www.goodwillny.org/","social":"facebook.com/Goodwill.NewYorkNewJersey","hours":"M,9am-7pm<br/>T,9am-7pm<br/>W,9am-7pm<br/>Th,9am-7pm<br/>F,9am-7pm<br/>Sa,9am-7pm<br/>Su,10am-7pm<br/>","address":"361 E 149th St Bronx, NY 10455","phone":"(718) 292-1083","borough":"Bronx"},"geometry":{"type":"Point","coordinates":[-73.918804,40.816877]}},{"type":"Feature","properties":{"name":"Neighborhood House Thrift Shop","website":"http://www.riverdaleonline.org/","social":"","hours":"M,closed<br/>T,10am-1pm<br/>W,1pm-4pm<br/>Th,10am-1pm<br/>F,1pm-4pm<br/>Sa,10am-4pm<br/>Su,closed<br/>","address":"466 West 261st St. Bronx, NY 10471","phone":"(718) 548-1388","borough":"Bronx"},"geometry":{"type":"Point","coordinates":[-73.9028232,40.9100214]}},{"type":"Feature","properties":{"name":"Our Lady Of Refuge Thrift Shop","website":"","social":"","hours":"M,closed<br/>T,closed<br/>W,closed<br/>Th,closed<br/>F,noon-4pm<br/>Sa,noon-4pm<br/>Su,closed<br/>","address":"2845 Briggs Ave. Bronx, NY 10458","phone":"(718) 733-9026","borough":"Bronx"},"geometry":{"type":"Point","coordinates":[-73.88888469999999,40.8692673]}},{"type":"Feature","properties":{"name":"Salvation Army Thrift Store","website":"http://www.salvationarmy-usaeast.org/","social":"","hours":"M,10am-6pm<br/>T,closed<br/>W,closed<br/>Th,10am-6pm<br/>F,closed<br/>Sa,closed<br/>Su,closed<br/>","address":"2582 3 Ave. Bronx, NY 10454","phone":"(718) 585-5820","borough":"Bronx"},"geometry":{"type":"Point","coordinates":[-73.9257636,40.81148839999999]}},{"type":"Feature","properties":{"name":"Salvation Army Thrift Store","website":"http://www.salvationarmy-usaeast.org/","social":"","hours":"M,10am-6pm<br/>T,closed<br/>W,closed<br/>Th,10am-6pm<br/>F,closed<br/>Sa,closed<br/>Su,closed<br/>","address":"4109 Park Ave. Bronx, NY 10457","phone":"(718) 583-3500","borough":"Bronx"},"geometry":{"type":"Point","coordinates":[-73.901079,40.845553]}},{"type":"Feature","properties":{"name":"Salvation Army Thrift Store","website":"http://www.salvationarmy-usaeast.org/","social":"","hours":"M,9am-5pm<br/>T,closed<br/>W,closed<br/>Th,10am-8pm<br/>F,closed<br/>Sa,closed<br/>Su,closed<br/>","address":"1292 Southern Blvd. Bronx, NY 10459","phone":"(718) 991-2172","borough":"Bronx"},"geometry":{"type":"Point","coordinates":[-73.8913692,40.8306366]}},{"type":"Feature","properties":{"name":"African Refuge","website":"http://www.africanrefuge.org/","social":"","hours":"M,9:30am-5pm<br/>T,9:30am-5pm<br/>W,9:30am-5pm<br/>Th,9:30am-5pm<br/>F,by appt<br/>Sa,by appt<br/>Su,by appt<br/>","address":"185 Parkhill Ave, Suite LB Staten Island, NY 10304","phone":"(718) 701-4055","borough":"Staten Island"},"geometry":{"type":"Point","coordinates":[-74.0858207,40.60886199999999]}},{"type":"Feature","properties":{"name":"Alzheimers Foundation Thrift","website":"","social":"","hours":"M,9am-4pm<br/>T,9am-4pm<br/>W,9am-4pm<br/>Th,9am-4pm<br/>F,9am-4pm<br/>Sa,9am-4pm<br/>Su,closed<br/>","address":"781 Post Ave New York, NY 10310","phone":"(718) 273-9402","borough":"Staten Island"},"geometry":{"type":"Point","coordinates":[-74.127695,40.631571]}},{"type":"Feature","properties":{"name":"Animal Care and Control of New York City","website":"www.nycacc.org/getinvolved2.htm","social":"","hours":"M,8am-8pm<br/>T,8am-8pm<br/>W,8am-8pm<br/>Th,8am-8pm<br/>F,8am-8pm<br/>Sa,8am-8pm<br/>Su,8am-8pm<br/>","address":"3139 Veterans Road West Staten Island, NY 10309","phone":"(212) 788-4000","borough":"Staten Island"},"geometry":{"type":"Point","coordinates":[-74.2379459,40.527916]}},{"type":"Feature","properties":{"name":"Bay Street Thrift","website":"","social":"","hours":"M,by appt<br/>T,10:30am-5pm<br/>W,10:30am-5pm<br/>Th,11:30am-5pm<br/>F,10:30am-5pm<br/>Sa,10am-5pm<br/>Su,by appt<br/>","address":"1090 Bay St. Staten Island, NY 10305","phone":"(718) 447-2140","borough":"Staten Island"},"geometry":{"type":"Point","coordinates":[-74.06804699999999,40.616226]}},{"type":"Feature","properties":{"name":"Congregation of Toras Emes of Staten Island","website":"","social":"","hours":"M,9am-3pm<br/>T,closed<br/>W,closed<br/>Th,9am-3pm<br/>F,closed<br/>Sa,closed<br/>Su,10am-noon<br/>","address":"3151 Hylan Blvd. Staten Island, NY 10306","phone":"(718) 667-5228","borough":"Staten Island"},"geometry":{"type":"Point","coordinates":[-74.1256033,40.5589667]}},{"type":"Feature","properties":{"name":"GrowNYC Clothing & Textile Recycling Collections","website":"www.grownyc.org/clothing","social":"facebook.com/GrowNYC","hours":"M,closed<br/>T,closed<br/>W,closed<br/>Th,closed<br/>F,closed<br/>Sa,8am-1:30pm<br/>Su,closed<br/>","address":"St. Marks Pl & Hyatt St Staten Island, NY 10301","phone":"(212) 788-7964","borough":"Staten Island"},"geometry":{"type":"Point","coordinates":[-73.9876805,40.7285778]}},{"type":"Feature","properties":{"name":"GrowNYC Clothing & Textile Recycling Collections Staten Island Mall","website":"www.grownyc.org/clothing","social":"facebook.com/GrowNYC","hours":"M,closed<br/>T,closed<br/>W,closed<br/>Th,closed<br/>F,closed<br/>Sa,9am-3pm<br/>Su,closed<br/>","address":"Greenmarket, Richmond Ave. Staten Island, NY 10314","phone":"(212) 788-7964","borough":"Staten Island"},"geometry":{"type":"Point","coordinates":[-74.16902040000001,40.57835559999999]}},{"type":"Feature","properties":{"name":"Immigrant Information Center Inc","website":"http://www.iicglobal.webs.com/","social":"","hours":"M,10am-7:30pm<br/>T,10am-7:30pm<br/>W,10am-7:30pm<br/>Th,10am-7:30pm<br/>F,by appt<br/>Sa,noon-4pm<br/>Su,by appt<br/>","address":"320 Vanderbilt Ave. Suite L Staten Island, NY 10304","phone":"(718) 273-2294","borough":"Staten Island"},"geometry":{"type":"Point","coordinates":[-74.0815286,40.6174499]}},{"type":"Feature","properties":{"name":"South Beach Psychiatric Center Thrift Shop","website":"","social":"","hours":"M,9am-1pm<br/>T,closed<br/>W,9am-1pm<br/>Th,closed<br/>F,closed<br/>Sa,closed<br/>Su,closed<br/>","address":"777 Seaview Ave. Bldg #9 Staten Island, NY 10305","phone":"(718) 667-2440","borough":"Staten Island"},"geometry":{"type":"Point","coordinates":[-74.07866299999999,40.582822]}},{"type":"Feature","properties":{"name":"Tottenville Thrift Shop","website":"","social":"","hours":"M,10am-4pm<br/>T,10am-4pm<br/>W,10am-4pm<br/>Th,10am-4pm<br/>F,10am-4pm<br/>Sa,10am-4pm<br/>Su,10am-4pm<br/>","address":"223 Main St. Staten Island, NY 10307","phone":"(718) 984-7439","borough":"Staten Island"},"geometry":{"type":"Point","coordinates":[-74.2473928,40.5096181]}},{"type":"Feature","properties":{"name":"Goodwill Thrift Shop - Steinway Store","website":"www.goodwillny.org","social":"facebook.com/Goodwill.NewYorkNewJersey","hours":"M,10am-8pm<br/>T,10am-8pm<br/>W,10am-8pm<br/>Th,10am-8pm<br/>F,10am-8pm<br/>Sa,10am-8pm<br/>Su,10am-7pm","address":"32-36 Steinway St. Astoria, NY 11103","phone":"(718) 932-0418","borough":"Queens"},"geometry":{"type":"Point","coordinates":[-73.91995899999999,40.7581531]}},{"type":"Feature","properties":{"name":"GrowNYC Clothing & Textile Recycling Collections","website":"www.grownyc.org/clothing","social":"facebook.com/GrowNYC","hours":"M,closed<br/>T,closed<br/>W,closed<br/>Th,closed<br/>F,closed<br/>Sa,closed<br/>Su,8am-2pm","address":"Jackson Heights Greenmarket, 34th Ave b/t 77 & 78 Sts Jackson Heights, NY 11372","phone":"(212) 788-7964","borough":"Queens"},"geometry":{"type":"Point","coordinates":[-73.8830701,40.7556818]}},{"type":"Feature","properties":{"name":"Jewish Center of Jackson Heights","website":"","social":"","hours":"M,10am-5pm<br/>T,10am-5pm<br/>W,10am-5pm<br/>Th,10am-5pm<br/>F,closed<br/>Sa,closed<br/>Su,closed","address":"37-06 77th St. Jackson Heights, NY 11372","phone":"(718) 429-1150","borough":"Queens"},"geometry":{"type":"Point","coordinates":[-73.8890406,40.74895900000001]}},{"type":"Feature","properties":{"name":"Karluway Development Association USA","website":"www.karluwayusa.org","social":"","hours":"M,10:30am-6pm<br/>T,10am-6pm<br/>W,10am-6pm<br/>Th,by appt<br/>F,10am-10pm<br/>Sa,10:30am-5:30pm<br/>Su,by appt","address":"105 18 31st Ave East Elmhurst, NY 11369","phone":"(718) 426-8220","borough":"Queens"},"geometry":{"type":"Point","coordinates":[-73.863546,40.761256]}},{"type":"Feature","properties":{"name":"Martin Luther School Thrift Shop","website":"www.MartinLutherNYC.org","social":"","hours":"M,by appt<br/>T,10am-4pm<br/>W,10am-4pm<br/>Th,10am-4pm<br/>F,by appt<br/>Sa,10am-4pm<br/>Su,by appt","address":"5901 Maspeth Ave Maspeth, NY 11378","phone":"(718) 329-4098","borough":"Queens"},"geometry":{"type":"Point","coordinates":[-73.908344,40.7233545]}},{"type":"Feature","properties":{"name":"Materials For The Arts","website":"www.mfta.org","social":"facebook.com/Materials4theArts","hours":"M,9am-5pm<br/>T,9am-5pm<br/>W,9am-5pm<br/>Th,9am-5pm<br/>F,9am-5pm<br/>Sa,closed<br/>Su,closed","address":"3300 Northern Blvd. Long Island City, NY 11101","phone":"(718) 729-3001","borough":"Queens"},"geometry":{"type":"Point","coordinates":[-73.9315857,40.751736]}},{"type":"Feature","properties":{"name":"Salvation Army Thrift Store","website":"www.salvationarmy-usaeast.org","social":"","hours":"M,10am-6pm<br/>T,closed<br/>W,closed<br/>Th,10am-6pm<br/>F,closed<br/>Sa,closed<br/>Su,closed","address":"3402 Steinway St. Long Island City, NY 11101","phone":"(718) 472-2414","borough":"Queens"},"geometry":{"type":"Point","coordinates":[-73.9212251,40.7566145]}},{"type":"Feature","properties":{"name":"Salvation Army Thrift Store","website":"www.salvationarmy-usaeast.org","social":"","hours":"M,10am-7pm<br/>T,closed<br/>W,closed<br/>Th,10am-7pm<br/>F,closed<br/>Sa,closed<br/>Su,closed","address":"3911 61st St. Woodside, NY 11377","phone":"(718) 458-1526","borough":"Queens"},"geometry":{"type":"Point","coordinates":[-73.9026954,40.746743]}},{"type":"Feature","properties":{"name":"Salvation Army Thrift Store","website":"www.salvationarmy-usaeast.org","social":"","hours":"M,10am-6pm<br/>T,10am-6pm<br/>W,10am-6pm<br/>Th,10am-6pm<br/>F,10am-6pm<br/>Sa,10am-6pm<br/>Su,closed","address":"148-15 Archer Ave. Jamaica, NY 11435","phone":"(718) 523-4648","borough":"Queens"},"geometry":{"type":"Point","coordinates":[-73.80556299999999,40.70127]}},{"type":"Feature","properties":{"name":"Worthy Pause Thrift And Gift Shop","website":"www.theworthypause.org","social":"","hours":"M,closed<br/>T,12:30pm-5:30pm<br/>W,12:30pm-5:30pm<br/>Th,12:30pm-5:30pm<br/>F,12:30pm-5:30pm<br/>Sa,11am-6pm<br/>Su,noon-4pm","address":"40-08 CPL Kennedy St Bayside, NY 11361","phone":"(718) 279-8191","borough":"Queens"},"geometry":{"type":"Point","coordinates":[-73.77672609999999,40.7648895]}},{"type":"Feature","properties":{"name":"African Center for Community Empowerment","website":"http://www.africancenterusa.org/","social":"","hours":"M,10am-6pm<br/>T,10am-6pm<br/>W,10:30am-6pm<br/>Th,10am-6pm<br/>F,10am-6pm<br/>Sa,by appt<br/>Su,by appt","address":"111-20A Farmers Blvd St. Albans, NY 11412","phone":"(718) 264-9638","borough":"Queens"},"geometry":{"type":"Point","coordinates":[-73.765366,40.701319]}},{"type":"Feature","properties":{"name":"Animal Care and Control of New York City","website":"www.nycacc.org/getinvolved2.htm","social":"","hours":"M,8am-8pm<br/>T,8am-8pm<br/>W,8am-8pm<br/>Th,8am-8pm<br/>F,8am-8pm<br/>Sa,8am-8pm<br/>Su,8am-8pm","address":"92-29 Queens Blvd. Rego Park, NY 11374","phone":"(212) 788-4000","borough":"Queens"},"geometry":{"type":"Point","coordinates":[-73.8668763,40.7323802]}},{"type":"Feature","properties":{"name":"Broadway Thrift Shop Ctr","website":"","social":"","hours":"M,9:30am-8pm<br/>T,9:30am-8pm<br/>W,9:30am-8pm<br/>Th,9:30am-8pm<br/>F,9:30am-8pm<br/>Sa,9:30am-8pm<br/>Su,10:30am-7pm","address":"4114 Broadway Long Island City, NY 11103","phone":"(718) 721-8524","borough":"Queens"},"geometry":{"type":"Point","coordinates":[-73.917827,40.758151]}},{"type":"Feature","properties":{"name":"Build It Green NYC","website":"http://www.bignyc.org/","social":"facebook.com/bignyc","hours":"M,closed<br/>T,10am-6pm<br/>W,10am-6pm<br/>Th,10am-6pm<br/>F,10am-6pm<br/>Sa,10am-5pm<br/>Su,closed","address":"317 26th Ave. Astoria, NY 11102","phone":"(718) 777-0132","borough":"Queens"},"geometry":{"type":"Point","coordinates":[-73.9328006,40.7763155]}},{"type":"Feature","properties":{"name":"Catholic Charities","website":"http://www.ccbq.org/","social":"","hours":"M,9am-3pm<br/>T,9am-3pm<br/>W,9am-3pm<br/>Th,9am-3pm<br/>F,9am-3pm<br/>Sa,closed<br/>Su,closed","address":"9039 189th St. Hollis, NY 11423","phone":"(718) 217-1238","borough":"Queens"},"geometry":{"type":"Point","coordinates":[-73.7704397,40.7119967]}},{"type":"Feature","properties":{"name":"Catholic Charities","website":"http://www.ccbq.org/","social":"","hours":"M,9am-5pm<br/>T,9am-5pm<br/>W,9am-5pm<br/>Th,9am-5pm<br/>F,9am-5pm<br/>Sa,closed<br/>Su,closed","address":"8956 162nd St. Jamaica, NY 11432","phone":"(718) 217-1238","borough":"Queens"},"geometry":{"type":"Point","coordinates":[-73.79841329999999,40.7050637]}},{"type":"Feature","properties":{"name":"Corona Self Help Center","website":"da-us.org/","social":"","hours":"M,8am - 8pm<br/>T,8am - 8pm<br/>W,8am - 8pm<br/>Th,8am - 8pm<br/>F,8am - 8pm<br/>Sa,by appt<br/>Su,by appt","address":"33-19 101 Street Corona, NY 11368","phone":"(718) 458-0108","borough":"Queens"},"geometry":{"type":"Point","coordinates":[-73.867032,40.7568399]}},{"type":"Feature","properties":{"name":"Dress For Success - Queens Branch","website":"http://www.dressforsuccess.org/","social":"facebook.com/DressForSuccess","hours":"M,9am-5pm<br/>T,9am-5pm<br/>W,9am-5pm<br/>Th,9am-5pm<br/>F,9am-5pm<br/>Sa,10am-4pm<br/>Su,closed","address":"116-06 Merrick Blvd. Jamaica, NY 11434","phone":"(718) 949-7396","borough":"Queens"},"geometry":{"type":"Point","coordinates":[-73.77668369999999,40.6880928]}},{"type":"Feature","properties":{"name":"Free Synagogue Of Flushing Thrift Store","website":"http://www.freesynagogue.org/","social":"","hours":"M,10am-3pm<br/>T,by appt<br/>W,by appt<br/>Th,by appt<br/>F,by appt<br/>Sa,by appt<br/>Su,by appt","address":"4160 Kissena Blvd Flushing, NY 11355","phone":"(718) 961-0030","borough":"Queens"},"geometry":{"type":"Point","coordinates":[-73.8276985,40.7574613]}},{"type":"Feature","properties":{"name":"Goodwill Outlet Center","website":"http://www.goodwillny.org/","social":"facebook.com/Goodwill.NewYorkNewJersey","hours":"M,9:30am-6:30pm<br/>T,9:30am-6:30pm<br/>W,9:30am-6:30pm<br/>Th,9:30am-6:30pm<br/>F,9:30am-6:30pm<br/>Sa,9:30am-6:30pm<br/>Su,noon-6pm","address":"47-47 Van Dam Street Long Island City, NY 11101","phone":"(718) 392-0125","borough":"Queens"},"geometry":{"type":"Point","coordinates":[-73.9341025,40.7412336]}},{"type":"Feature","properties":{"name":"Dress For Success Worldwide","website":"www.dressforsuccess.org","social":"facebook.com/DressForSuccess","hours":"M,9am-5pm<br/>T,9am-5pm<br/>W,9am-5pm<br/>Th,9am-5pm<br/>F,9am-5pm<br/>Sa,10am-3pm<br/>Su,by appt","address":"32 East 31st St., Ste. 602 New York, NY 10016","phone":"(212) 545-3769","borough":"Manhattan"},"geometry":{"type":"Point","coordinates":[-73.983836,40.745394]}},{"type":"Feature","properties":{"name":"Crutches 4 Kids - at Vanderbilt Clinic","website":"www.crutches4kids.org","social":"facebook.com/crutches4kids","hours":"M,9am-5pm<br/>T,9am-5pm<br/>W,9am-5pm<br/>Th,9am-5pm<br/>F,9am-5pm<br/>Sa,closed<br/>Su,closed","address":"622 W 168th St New York, NY 10032","phone":"(212) 606-1000","borough":"Manhattan"},"geometry":{"type":"Point","coordinates":[-73.94067,40.841311]}},{"type":"Feature","properties":{"name":"Cure Thrift Shop","website":"www.curethriftshop.com","social":"facebook.com/CureThriftshop","hours":"M,11am - 8pm<br/>T,11am - 8pm<br/>W,11am - 8pm<br/>Th,11am - 8pm<br/>F,11am - 8pm<br/>Sa,11am - 8pm<br/>Su,11am - 8pm","address":"111 E 12 St New York, NY 10003","phone":"(212) 505-7467","borough":"Manhattan"},"geometry":{"type":"Point","coordinates":[-73.9892833,40.7326079]}},{"type":"Feature","properties":{"name":"Salvation Army Thrift Store","website":"www.salvationarmy-usaeast.org","social":"","hours":"M,10am-6pm<br/>T,closed<br/>W,closed<br/>Th,10am-6pm<br/>F,closed<br/>Sa,closed<br/>Su,closed","address":"212 East 23 St. New York, NY 10010","phone":"(212) 532-8115","borough":"Manhattan"},"geometry":{"type":"Point","coordinates":[-73.9822731,40.7384405]}},{"type":"Feature","properties":{"name":"Salvation Army Thrift Store","website":"www.salvationarmy-usaeast.org","social":"","hours":"M,10am-6:45pm<br/>T,10am-6:45pm<br/>W,10am-6:45pm<br/>Th,10am-6:45pm<br/>F,10am-6:45pm<br/>Sa,10am-6:45pm<br/>Su,closed","address":"208 8 Ave. New York, NY 10011","phone":"(212) 929-5214","borough":"Manhattan"},"geometry":{"type":"Point","coordinates":[-73.999235,40.743678]}},{"type":"Feature","properties":{"name":"Salvation Army Thrift Store","website":"www.salvationarmy-usaeast.org","social":"","hours":"M,10am-5:30pm<br/>T,closed<br/>W,closed<br/>Th,10am-5:30pm<br/>F,closed<br/>Sa,closed<br/>Su,closed","address":"268 West 96th St. New York, NY 10025","phone":"(212) 663-2258","borough":"Manhattan"},"geometry":{"type":"Point","coordinates":[-73.97278399999999,40.794759]}},{"type":"Feature","properties":{"name":"Salvation Army Thrift Store","website":"www.salvationarmy-usaeast.org","social":"","hours":"M,9am-5pm<br/>T,closed<br/>W,closed<br/>Th,9am-5pm<br/>F,closed<br/>Sa,closed<br/>Su,closed","address":"26 East 125th St. New York, NY 10035","phone":"(212) 289-9617","borough":"Manhattan"},"geometry":{"type":"Point","coordinates":[-73.9413695,40.80563129999999]}},{"type":"Feature","properties":{"name":"Salvation Army Thrift Store","website":"www.salvationarmy-usaeast.org","social":"","hours":"M,9am-5:30pm<br/>T,closed<br/>W,closed<br/>Th,9am-5:30pm<br/>F,closed<br/>Sa,closed<br/>Su,closed","address":"536 West 46th St. New York, NY 10036","phone":"(212) 757-2311","borough":"Manhattan"},"geometry":{"type":"Point","coordinates":[-73.9952813,40.7626972]}},{"type":"Feature","properties":{"name":"Set Recycling Hotline","website":"www.setrecyclinghotline.org","social":"","hours":"M,by appt<br/>T,by appt<br/>W,by appt<br/>Th,by appt<br/>F,by appt<br/>Sa,closed<br/>Su,closed","address":"20 Seaman Avenue, #2J New York, NY 10034","phone":"(212) 650-7566","borough":"Manhattan"},"geometry":{"type":"Point","coordinates":[-73.9274496,40.8667677]}},{"type":"Feature","properties":{"name":"Shoe4 Africa at Urban Athletics","website":"www.tanser.org/shoe.htm","social":"","hours":"M,5pm-7pm<br/>T,5pm-7pm<br/>W,5pm-7pm<br/>Th,5pm-7pm<br/>F,5pm-7pm<br/>Sa,3pm-6pm<br/>Su,4pm-5pm","address":"1291 Madison Avenue New York, NY 10128","phone":"(212) 828-1906","borough":"Manhattan"},"geometry":{"type":"Point","coordinates":[-73.9560104,40.784488]}},{"type":"Feature","properties":{"name":"Spence Chapin Thrift Shop","website":"www.spence-chapin.org/support-spence-chapin/f3_SC_thrift_shops.php","social":"","hours":"M,11am-6pm<br/>T,11am-6pm<br/>W,11am-6pm<br/>Th,11am-6pm<br/>F,11am-6pm<br/>Sa,11am-6pm<br/>Su,noon-4:30pm","address":"1473 Third Avenue New York, NY 10028","phone":"(212) 737-8448","borough":"Manhattan"},"geometry":{"type":"Point","coordinates":[-73.95530959999999,40.7770498]}},{"type":"Feature","properties":{"name":"St Georges Thrift Shop","website":"","social":"","hours":"M,10:30am-5:30pm<br/>T,closed<br/>W,closed<br/>Th,10:30am-5:30pm<br/>F,closed<br/>Sa,closed<br/>Su,closed","address":"61 Gramercy Park North New York, NY 10010","phone":"(212) 475-2674","borough":"Manhattan"},"geometry":{"type":"Point","coordinates":[-73.9865496,40.7387791]}},{"type":"Feature","properties":{"name":"St Lukes Thrift Shop","website":"","social":"","hours":"M,11am-6pm<br/>T,11am-6pm<br/>W,11am-6pm<br/>Th,11am-6pm<br/>F,11am-6pm<br/>Sa,10am-6pm<br/>Su,11am-5pm","address":"487 Hudson St., Lower Level New York, NY 10014","phone":"(212) 924-9364","borough":"Manhattan"},"geometry":{"type":"Point","coordinates":[-74.0083777,40.7118534]}},{"type":"Feature","properties":{"name":"Barrier Free Living Inc","website":"www.bflnyc.org","social":"","hours":"M,9am-5pm<br/>T,9am-5pm<br/>W,9am-5pm<br/>Th,9am-5pm<br/>F,9am-5pm<br/>Sa,closed<br/>Su,closed","address":"270 East 2nd St. New York, NY 10009","phone":"(212) 677-6668","borough":"Manhattan"},"geometry":{"type":"Point","coordinates":[-73.98033769999999,40.7209036]}},{"type":"Feature","properties":{"name":"Bide A Wee","website":"www.bideawee.org","social":"","hours":"M,10am-5pm<br/>T,10am-5pm<br/>W,10am-7pm<br/>Th,10am-5pm<br/>F,10am-5pm<br/>Sa,10am-5pm<br/>Su,10am-4pm","address":"410 East 38th St. New York, NY 10016","phone":"(212) 532-6395","borough":"Manhattan"},"geometry":{"type":"Point","coordinates":[-73.970998,40.745874]}},{"type":"Feature","properties":{"name":"Crutches 4 Kids - at East Coast Orthotic & Prosthetic","website":"www.crutches4kids.org","social":"facebook.com/crutches4kids","hours":"M,9am-5pm<br/>T,9am-5pm<br/>W,9am-5pm<br/>Th,9am-5pm<br/>F,9am-5pm<br/>Sa,closed<br/>Su,closed","address":"3927 Broadway New York, NY 10032","phone":"(212) 606-1000","borough":"Manhattan"},"geometry":{"type":"Point","coordinates":[-73.9416297,40.8387575]}},{"type":"Feature","properties":{"name":"Goodwill Thrift Shop - E Harlem Store","website":"www.goodwillny.org","social":"facebook.com/Goodwill.NewYorkNewJersey","hours":"M,9:30am-7:30pm<br/>T,9:30am-7:30pm<br/>W,9:30am-7:30pm<br/>Th,9:30am-7:30pm<br/>F,9:30am-7:30pm<br/>Sa,9:30am-7:30pm<br/>Su,10am-7pm","address":"2231 3rd Ave. New York, NY 10035","phone":"(212) 410-0973","borough":"Manhattan"},"geometry":{"type":"Point","coordinates":[-73.937068,40.801328]}},{"type":"Feature","properties":{"name":"Goodwill Thrift Shop - Harlem Store","website":"www.goodwillny.org","social":"facebook.com/Goodwill.NewYorkNewJersey","hours":"M,10am-8pm<br/>T,10am-8pm<br/>W,10am-8pm<br/>Th,10am-8pm<br/>F,10am-8pm<br/>Sa,10am-8pm<br/>Su,10am-7pm","address":"2196 5th Ave. New York, NY 10037","phone":"(212) 862-0020","borough":"Manhattan"},"geometry":{"type":"Point","coordinates":[-73.938164,40.812497]}},{"type":"Feature","properties":{"name":"Goodwill Thrift Shop - Chelsea Store","website":"www.goodwillny.org","social":"facebook.com/Goodwill.NewYorkNewJersey","hours":"M,10am-8pm<br/>T,10am-8pm<br/>W,10am-8pm<br/>Th,10am-8pm<br/>F,10am-8pm<br/>Sa,10am-8pm<br/>Su,10am-7pm","address":"103 West 25 St. New York, NY 10001","phone":"(646) 638-1725","borough":"Manhattan"},"geometry":{"type":"Point","coordinates":[-73.9921732,40.74447370000001]}},{"type":"Feature","properties":{"name":"Goodwill Thrift Shop - 72nd St Store","website":"www.goodwillny.org","social":"facebook.com/Goodwill.NewYorkNewJersey","hours":"M,10am-8pm<br/>T,10am-8pm<br/>W,10am-8pm<br/>Th,10am-8pm<br/>F,10am-8pm<br/>Sa,10am-8pm<br/>Su,10am-7pm","address":"157 W 72nd St New York, NY 10023","phone":"(212) 799-2723","borough":"Manhattan"},"geometry":{"type":"Point","coordinates":[-73.980571,40.778473]}},{"type":"Feature","properties":{"name":"Goodwill Thrift Shop - 79th St Store","website":"www.goodwillny.org","social":"facebook.com/Goodwill.NewYorkNewJersey","hours":"M,10am-8pm<br/>T,10am-8pm<br/>W,10am-8pm<br/>Th,10am-8pm<br/>F,10am-8pm<br/>Sa,10am-8pm<br/>Su,10am-7pm","address":"217 West 79th Street, NY NY 10024","phone":"(212) 874-5050","borough":"Manhattan"},"geometry":{"type":"Point","coordinates":[-73.979007,40.783755]}},{"type":"Feature","properties":{"name":"GrowNYC Clothing & Textile Recycling Collections","website":"www.grownyc.org/clothing","social":"facebook.com/GrowNYC","hours":"M,closed<br/>T,closed<br/>W,closed<br/>Th,closed<br/>F,closed<br/>Sa,8am-1:30pm<br/>Su,closed","address":"Tribeca Greenmarket, Greenwich St at Chambers New York, NY 10007","phone":"(212) 788-7964","borough":"Manhattan"},"geometry":{"type":"Point","coordinates":[-74.0087126,40.7136487]}},{"type":"Feature","properties":{"name":"High Water Women Foundation Meteora Partners LLC","website":"www.highwaterwomen.org","social":"","hours":"M,call first<br/>T,closed<br/>W,closed<br/>Th,call first<br/>F,closed<br/>Sa,closed<br/>Su,closed","address":"11 Broadway, Suite 965 New York, NY 10004","phone":"(212) 634-7365","borough":"Manhattan"},"geometry":{"type":"Point","coordinates":[-74.014346,40.7055269]}},{"type":"Feature","properties":{"name":"Housing Works Thrift Shop","website":"www.shophousingworks.com/locationDetail.cfm?entry=757","social":"facebook.com/HousingWorksThrifts","hours":"M,10am-7pm<br/>T,10am-7pm<br/>W,10am-7pm<br/>Th,10am-7pm<br/>F,10am-7pm<br/>Sa,10am-7pm<br/>Su,noon-5pm","address":"119 Chambers Street New York, NY 10007","phone":"(212) 732-0584","borough":"Manhattan"},"geometry":{"type":"Point","coordinates":[-74.00842899999999,40.7154113]}},{"type":"Feature","properties":{"name":"Housing Works Thrift Shop","website":"www.housingworksauctions.com","social":"facebook.com/HousingWorksThrifts","hours":"M,10am-7pm<br/>T,10am-7pm<br/>W,10am-7pm<br/>Th,10am-7pm<br/>F,10am-7pm<br/>Sa,10am-6pm<br/>Su,noon-5pm","address":"157 East 23rd St. New York, NY 10010","phone":"(212) 529-5955","borough":"Manhattan"},"geometry":{"type":"Point","coordinates":[-73.9836395,40.73926]}},{"type":"Feature","properties":{"name":"Housing Works Thrift Shop","website":"www.housingworksauctions.com","social":"facebook.com/HousingWorksThrifts","hours":"M,10am-7pm<br/>T,10am-7pm<br/>W,10am-7pm<br/>Th,10am-7pm<br/>F,10am-7pm<br/>Sa,10am-6pm<br/>Su,noon-5pm","address":"143 West 17th St. New York, NY 10011","phone":"(212) 366-0820","borough":"Manhattan"},"geometry":{"type":"Point","coordinates":[-73.9971456,40.74024800000001]}},{"type":"Feature","properties":{"name":"Housing Works Thrift Shop","website":"www.housingworks.org/locations/detail/thrift-shops-soho/","social":"facebook.com/HousingWorksThrifts","hours":"M,10am-7pm<br/>T,10am-7pm<br/>W,10am-7pm<br/>Th,10am-7pm<br/>F,10am-7pm<br/>Sa,10am-7pm<br/>Su,10am-5pm","address":"130 Crosby Street New York, NY 10012","phone":"(646) 786-1200","borough":"Manhattan"},"geometry":{"type":"Point","coordinates":[-73.9963908,40.7247093]}},{"type":"Feature","properties":{"name":"Housing Works Thrift Shop","website":"www.housingworksauctions.com","social":"facebook.com/HousingWorksThrifts","hours":"M,11am-7pm<br/>T,closed<br/>W,closed<br/>Th,11am-7pm<br/>F,closed<br/>Sa,closed<br/>Su,noon-5pm","address":"245 West 10th St. New York, NY 10014","phone":"(212) 352-1618","borough":"Manhattan"},"geometry":{"type":"Point","coordinates":[-74.0059529,40.7338886]}},{"type":"Feature","properties":{"name":"Housing Works Thrift Shop","website":"www.housingworksauctions.com","social":"facebook.com/HousingWorksThrifts","hours":"M,11am-7pm<br/>T,11am-7pm<br/>W,11am-7pm<br/>Th,11am-7pm<br/>F,11am-7pm<br/>Sa,10am-6pm<br/>Su,noon-5pm","address":"202 East 77th St. New York, NY 10021","phone":"(212) 772-8461","borough":"Manhattan"},"geometry":{"type":"Point","coordinates":[-73.957939,40.7727182]}},{"type":"Feature","properties":{"name":"Housing Works Thrift Shop","website":"www.housingworksauctions.com","social":"facebook.com/HousingWorksThrifts","hours":"M,11am-7pm<br/>T,11am-7pm<br/>W,11am-7pm<br/>Th,11am-7pm<br/>F,11am-7pm<br/>Sa,10am-6pm<br/>Su,noon-5pm","address":"306 Columbus Ave. New York, NY 10023","phone":"(212) 579-7566","borough":"Manhattan"},"geometry":{"type":"Point","coordinates":[-73.97766349999999,40.7789887]}},{"type":"Feature","properties":{"name":"Housing Works Thrift Shop","website":"www.housingworksauctions.com","social":"facebook.com/HousingWorksThrifts","hours":"M,11am-7pm<br/>T,closed<br/>W,closed<br/>Th,11am-7pm<br/>F,closed<br/>Sa,closed<br/>Su,noon-5pm","address":"1730 2nd Ave. New York, NY 10028","phone":"(212) 722-8306","borough":"Manhattan"},"geometry":{"type":"Point","coordinates":[-73.952381,40.7770267]}},{"type":"Feature","properties":{"name":"Humane Society of New York","website":"www.humanesocietyny.org/","social":"","hours":"M,call first<br/>T,call first<br/>W,call first<br/>Th,call first<br/>F,call first<br/>Sa,call first<br/>Su,call first","address":"306 East 59th St. New York, NY 10022","phone":"(212) 752-4842","borough":"Manhattan"},"geometry":{"type":"Point","coordinates":[-73.963881,40.7601843]}},{"type":"Feature","properties":{"name":"Salvation Army Thrift Store","website":"www.salvationarmy-usaeast.org","social":"","hours":"M,10am-7pm<br/>T,closed<br/>W,closed<br/>Th,10am-7pm<br/>F,closed<br/>Sa,closed<br/>Su,closed","address":"112 4th Ave. New York, NY 10003","phone":"(212) 673-2741","borough":"Manhattan"},"geometry":{"type":"Point","coordinates":[-73.9902858,40.7325755]}},{"type":"Feature","properties":{"name":"Catholic Charities","website":"","social":"","hours":"M,9am-1pm<br/>T,9am-1pm<br/>W,9am-1pm<br/>Th,9am-1pm<br/>F,9am-1pm<br/>Sa,9am-1pm<br/>Su,closed","address":"510 West 165th St. New York, NY 10032","phone":"(212) 568-0091","borough":"Manhattan"},"geometry":{"type":"Point","coordinates":[-73.93918699999999,40.837943]}},{"type":"Feature","properties":{"name":"Cauz for Pawz","website":"www.cauzforpawz.com","social":"","hours":"M,10am-7:30pm<br/>T,10am-7:30pm<br/>W,10am-7:30pm<br/>Th,10am-7:30pm<br/>F,10am-7:30pm<br/>Sa,10am-7:30pm<br/>Su,11am - 6pm","address":"212 E 23 St New York, NY 10010","phone":"(212) 684-7299","borough":"Manhattan"},"geometry":{"type":"Point","coordinates":[-73.9822731,40.7384405]}},{"type":"Feature","properties":{"name":"Career Gear","website":"www.careergear.org","social":"","hours":"M,10am-5pm<br/>T,10am-5pm<br/>W,10am-5pm<br/>Th,10am-5pm<br/>F,10am-5pm<br/>Sa,closed<br/>Su,closed","address":"120 Broadway, 30th Fl New York, NY 10271","phone":"(212) 577-6190","borough":"Manhattan"},"geometry":{"type":"Point","coordinates":[-74.0110018,40.7085019]}},{"type":"Feature","properties":{"name":"Bridal Garden","website":"www.bridalgarden.org","social":"","hours":"M,by appt<br/>T,by appt<br/>W,by appt<br/>Th,by appt<br/>F,by appt<br/>Sa,by appt<br/>Su,by appt","address":"54 West 21st Street, Suite 907 New York, NY 10010","phone":"(212) 252-0661","borough":"Manhattan"},"geometry":{"type":"Point","coordinates":[-73.993234,40.741158]}},{"type":"Feature","properties":{"name":"Cancer Care Thrift Shop","website":"www.cancercare.org","social":"","hours":"M,11am-6pm<br/>T,11am-6pm<br/>W,11am-7pm<br/>Th,11am-7pm<br/>F,11am-6pm<br/>Sa,11am-4:30pm<br/>Su,12:30pm-5pm","address":"1480 3rd Ave. New York, NY 10028","phone":"(212) 879-9868","borough":"Manhattan"},"geometry":{"type":"Point","coordinates":[-73.9554428,40.7773956]}},{"type":"Feature","properties":{"name":"Crutches 4 Kids - at Allen Hospital/Orthopedics","website":"www.crutches4kids.org","social":"facebook.com/crutches4kids","hours":"M,9am-5pm<br/>T,9am-5pm<br/>W,9am-5pm<br/>Th,9am-5pm<br/>F,9am-5pm<br/>Sa,closed<br/>Su,closed","address":"5141 Broadway New York, NY 10034","phone":"(212) 606-1000","borough":"Manhattan"},"geometry":{"type":"Point","coordinates":[-73.9126994,40.8730201]}},{"type":"Feature","properties":{"name":"Crutches 4 Kids - at Columbia Doctors Midtown - Orthopedics","website":"www.crutches4kids.org","social":"facebook.com/crutches4kids","hours":"M,9am-5pm<br/>T,9am-5pm<br/>W,9am-5pm<br/>Th,9am-5pm<br/>F,9am-5pm<br/>Sa,closed<br/>Su,closed","address":"51 W 51st St New York, NY 10019","phone":"(212) 606-1000","borough":"Manhattan"},"geometry":{"type":"Point","coordinates":[-73.9793609,40.7604055]}},{"type":"Feature","properties":{"name":"Council Thrift Shop","website":"www.ncjwny.org/thrift.htm","social":"","hours":"M,11am-5:45pm<br/>T,11am-5:45pm<br/>W,11am-5:45pm<br/>Th,11am-7:45pm<br/>F,11am-4:45pm<br/>Sa,11am-4:45pm<br/>Su,noon-4:45pm","address":"246 East 84th St. New York, NY 10028","phone":"(212) 439-8373","borough":"Manhattan"},"geometry":{"type":"Point","coordinates":[-73.9531871,40.7766156]}},{"type":"Feature","properties":{"name":"Goodwill Thrift Shop - 23rd St Store","website":"www.goodwillny.org","social":"facebook.com/Goodwill.NewYorkNewJersey","hours":"M,10am-8pm<br/>T,10am-8pm<br/>W,10am-8pm<br/>Th,10am-8pm<br/>F,10am-8pm<br/>Sa,10am-8pm<br/>Su,10am-7pm","address":"220 East 23rd St. New York, NY 10010","phone":"(212) 447-7270","borough":"Manhattan"},"geometry":{"type":"Point","coordinates":[-73.98228019999999,40.7382746]}},{"type":"Feature","properties":{"name":"Goodwill Thrift Shop - 72nd St Store","website":"www.goodwillny.org","social":"facebook.com/Goodwill.NewYorkNewJersey","hours":"M,10am-8pm<br/>T,10am-8pm<br/>W,10am-8pm<br/>Th,10am-8pm<br/>F,10am-8pm<br/>Sa,10am-8pm<br/>Su,10am-7pm","address":"157 W 72nd St New York, NY 10023","phone":"(212) 799-2723","borough":"Manhattan"},"geometry":{"type":"Point","coordinates":[-73.980571,40.778473]}},{"type":"Feature","properties":{"name":"Goodwill Thrift Shop - 79th St Store","website":"www.goodwillny.org","social":"facebook.com/Goodwill.NewYorkNewJersey","hours":"M,10am-8pm<br/>T,10am-8pm<br/>W,10am-8pm<br/>Th,10am-8pm<br/>F,10am-8pm<br/>Sa,10am-8pm<br/>Su,10am-7pm","address":"217 West 79 St. New York, NY 10024","phone":"(212) 874-5050","borough":"Manhattan"},"geometry":{"type":"Point","coordinates":[-73.979007,40.783755]}},{"type":"Feature","properties":{"name":"Goodwill Thrift Shop - Chelsea Store","website":"www.goodwillny.org","social":"facebook.com/Goodwill.NewYorkNewJersey","hours":"M,10am-8pm<br/>T,10am-8pm<br/>W,10am-8pm<br/>Th,10am-8pm<br/>F,10am-8pm<br/>Sa,10am-8pm<br/>Su,10am-7pm","address":"103 West 25 St. New York, NY 10001","phone":"(646) 638-1725","borough":"Manhattan"},"geometry":{"type":"Point","coordinates":[-73.9921732,40.74447370000001]}},{"type":"Feature","properties":{"name":"Goodwill Thrift Shop - E Harlem Store","website":"www.goodwillny.org","social":"facebook.com/Goodwill.NewYorkNewJersey","hours":"M,9:30am-7:30pm<br/>T,9:30am-7:30pm<br/>W,9:30am-7:30pm<br/>Th,9:30am-7:30pm<br/>F,9:30am-7:30pm<br/>Sa,9:30am-7:30pm<br/>Su,10am-7pm","address":"2231 3rd Ave. New York, NY 10035","phone":"(212) 410-0973","borough":"Manhattan"},"geometry":{"type":"Point","coordinates":[-73.937068,40.801328]}},{"type":"Feature","properties":{"name":"Goodwill Thrift Shop - Harlem Store","website":"www.goodwillny.org","social":"facebook.com/Goodwill.NewYorkNewJersey","hours":"M,10am-8pm<br/>T,10am-8pm<br/>W,10am-8pm<br/>Th,10am-8pm<br/>F,10am-8pm<br/>Sa,10am-8pm<br/>Su,10am-7pm","address":"2196 5th Ave. New York, NY 10037","phone":"(212) 862-0020","borough":"Manhattan"},"geometry":{"type":"Point","coordinates":[-73.938164,40.812497]}},{"type":"Feature","properties":{"name":"Goodwill Thrift Shop - Stuyvesant Store","website":"www.goodwillny.org","social":"facebook.com/Goodwill.NewYorkNewJersey","hours":"M,10am-8pm<br/>T,10am-8pm<br/>W,10am-8pm<br/>Th,10am-8pm<br/>F,10am-8pm<br/>Sa,10am-8pm<br/>Su,10am-7pm","address":"1704 Second Ave. New York, NY 10128","phone":"(212) 831-1830","borough":"Manhattan"},"geometry":{"type":"Point","coordinates":[-73.950294,40.7793]}},{"type":"Feature","properties":{"name":"Goodwill Thrift Shop - Washington Hts Store","website":"www.goodwillny.org","social":"facebook.com/Goodwill.NewYorkNewJersey","hours":"M,10am-8pm<br/>T,10am-8pm<br/>W,10am-8pm<br/>Th,10am-8pm<br/>F,10am-8pm<br/>Sa,10am-8pm<br/>Su,10am-7pm","address":"512 West 181st St. New York, NY 10033","phone":"(212) 923-7910","borough":"Manhattan"},"geometry":{"type":"Point","coordinates":[-73.931997,40.848289]}},{"type":"Feature","properties":{"name":"GrowNYC Clothing & Textile Recycling Collections","website":"www.grownyc.org/clothing","social":"facebook.com/GrowNYC","hours":"M,8am-4pm<br/>T,closed<br/>W,closed<br/>Th,closed<br/>F,closed<br/>Sa,8am-4pm<br/>Su,closed","address":"Union Square Greenmarket, NE Section of Union Square Park New York, NY 10003","phone":"(212) 788-7964","borough":"Manhattan"},"geometry":{"type":"Point","coordinates":[-73.9903934,40.7359379]}},{"type":"Feature","properties":{"name":"GrowNYC Clothing & Textile Recycling Collections","website":"www.grownyc.org/clothing","social":"facebook.com/GrowNYC","hours":"M,closed<br/>T,closed<br/>W,closed<br/>Th,closed<br/>F,closed<br/>Sa,8am-1:30pm<br/>Su,closed","address":"Tribeca Greenmarket, Greenwich St at Chambers New York, NY 10007","phone":"(212) 788-7964","borough":"Manhattan"},"geometry":{"type":"Point","coordinates":[-74.0087126,40.7136487]}},{"type":"Feature","properties":{"name":"LESC Lower Eastside Service Center","website":"www.lesc.org","social":"","hours":"M,7:30am-2pm<br/>T,7:30am-2pm<br/>W,7:30am-2pm<br/>Th,7:30am-2pm<br/>F,by appt<br/>Sa,by appt<br/>Su,by appt","address":"7 Gouverneur Slip East New York, NY 10002","phone":"(212) 343-3571","borough":"Manhattan"},"geometry":{"type":"Point","coordinates":[-73.9832608,40.7109992]}},{"type":"Feature","properties":{"name":"Shoe4 Africa at Urban Athletics","website":"www.tanser.org/shoe.htm","social":"","hours":"M,5pm-7pm<br/>T,5pm-7pm<br/>W,5pm-7pm<br/>Th,5pm-7pm<br/>F,5pm-7pm<br/>Sa,3pm-6pm<br/>Su,4pm-5pm","address":"1291 Madison Avenue New York, NY 10128","phone":"(212) 828-1906","borough":"Manhattan"},"geometry":{"type":"Point","coordinates":[-73.9560104,40.784488]}},{"type":"Feature","properties":{"name":"Spence Chapin Thrift Shop","website":"www.spence-chapin.org/support-spence-chapin/f3_SC_thrift_shops.php","social":"","hours":"M,11am-6pm<br/>T,11am-6pm<br/>W,11am-6pm<br/>Th,11am-6pm<br/>F,11am-6pm<br/>Sa,11am-6pm<br/>Su,noon-4:30pm","address":"1473 Third Avenue New York, NY 10028","phone":"(212) 737-8448","borough":"Manhattan"},"geometry":{"type":"Point","coordinates":[-73.95530959999999,40.7770498]}},{"type":"Feature","properties":{"name":"Set Recycling Hotline","website":"www.setrecyclinghotline.org","social":"","hours":"M,by appt<br/>T,by appt<br/>W,by appt<br/>Th,by appt<br/>F,by appt<br/>Sa,closed<br/>Su,closed","address":"20 Seaman Avenue, #2J New York, NY 10034","phone":"(212) 650-7566","borough":"Manhattan"},"geometry":{"type":"Point","coordinates":[-73.9274496,40.8667677]}},{"type":"Feature","properties":{"name":"Salvation Army Thrift Store","website":"www.salvationarmy-usaeast.org","social":"","hours":"M,9am-5pm<br/>T,closed<br/>W,closed<br/>Th,9am-5pm<br/>F,closed<br/>Sa,closed<br/>Su,closed","address":"26 East 125th St. New York, NY 10035","phone":"(212) 289-9617","borough":"Manhattan"},"geometry":{"type":"Point","coordinates":[-73.9413695,40.80563129999999]}},{"type":"Feature","properties":{"name":"Salvation Army Thrift Store","website":"www.salvationarmy-usaeast.org","social":"","hours":"M,9am-5:30pm<br/>T,closed<br/>W,closed<br/>Th,9am-5:30pm<br/>F,closed<br/>Sa,closed<br/>Su,closed","address":"536 West 46th St. New York, NY 10036","phone":"(212) 757-2311","borough":"Manhattan"},"geometry":{"type":"Point","coordinates":[-73.9952813,40.7626972]}},{"type":"Feature","properties":{"name":"STRIVE New York","website":"www.strivenewyork.org","social":"","hours":"M,call first<br/>T,call first<br/>W,call first<br/>Th,call first<br/>F,call first<br/>Sa,closed<br/>Su,closed","address":"240 East 123rd Street, 3rd Flr. New York, NY 10035","phone":"(212) 360-1100","borough":"Manhattan"},"geometry":{"type":"Point","coordinates":[-73.9350819,40.801377]}},{"type":"Feature","properties":{"name":"Vintage Thrift Shop Benefiting The United Jewish Council Of The East Side","website":"www.vintagethriftshop.org","social":"facebook.com/pages/Vintage-Thrift/31763","hours":"M,10:30am-8pm<br/>T,10:30am-8pm<br/>W,10:30am-8pm<br/>Th,10:30am-8pm<br/>F,10:30am-4pm<br/>Sa,by appt<br/>Su,11am-7pm","address":"286 Third Avenue New York, NY 10010","phone":"(212) 871-0777","borough":"Manhattan"},"geometry":{"type":"Point","coordinates":[-73.983746,40.7385466]}},{"type":"Feature","properties":{"name":"St. John the Divine Cathedral Community Cares Clothing Closet Program","website":"www.stjohndivine.org/social.html","social":"","hours":"M,10am-5pm<br/>T,10am-5pm<br/>W,10am-5pm<br/>Th,10am-5pm<br/>F,10am-5pm<br/>Sa,closed<br/>Su,closed","address":"1047 Amsterdam Ave. New York, NY 10025","phone":"(212) 316-7584","borough":"Manhattan"},"geometry":{"type":"Point","coordinates":[-73.96253209999999,40.8041136]}},{"type":"Feature","properties":{"name":"St Georges Thrift Shop","website":"","social":"","hours":"M,10:30am-5:30pm<br/>T,closed<br/>W,closed<br/>Th,10:30am-5:30pm<br/>F,closed<br/>Sa,closed<br/>Su,closed","address":"61 Gramercy Park North New York, NY 10010","phone":"(212) 475-2674","borough":"Manhattan"},"geometry":{"type":"Point","coordinates":[-73.9865496,40.7387791]}},{"type":"Feature","properties":{"name":"Bridal Garden","website":"www.bridalgarden.org","social":"","hours":"M,by appt<br/>T,by appt<br/>W,by appt<br/>Th,by appt<br/>F,by appt<br/>Sa,by appt<br/>Su,by appt","address":"54 West 21st Street, Suite 907 New York, NY 10010","phone":"(212) 252-0661","borough":"Manhattan"},"geometry":{"type":"Point","coordinates":[-73.993234,40.741158]}},{"type":"Feature","properties":{"name":"Cancer Care Thrift Shop","website":"www.cancercare.org","social":"","hours":"M,11am-6pm<br/>T,11am-6pm<br/>W,11am-7pm<br/>Th,11am-7pm<br/>F,11am-6pm<br/>Sa,11am-4:30pm<br/>Su,12:30pm-5pm","address":"1480 3rd Ave. New York, NY 10028","phone":"(212) 879-9868","borough":"Manhattan"},"geometry":{"type":"Point","coordinates":[-73.9554428,40.7773956]}},{"type":"Feature","properties":{"name":"Career Gear","website":"www.careergear.org","social":"","hours":"M,10am-5pm<br/>T,10am-5pm<br/>W,10am-5pm<br/>Th,10am-5pm<br/>F,10am-5pm<br/>Sa,closed<br/>Su,closed","address":"120 Broadway, 30th Fl New York, NY 10271","phone":"(212) 577-6190","borough":"Manhattan"},"geometry":{"type":"Point","coordinates":[-74.0110018,40.7085019]}},{"type":"Feature","properties":{"name":"Catholic Charities","website":"","social":"","hours":"M,9am-1pm<br/>T,9am-1pm<br/>W,9am-1pm<br/>Th,9am-1pm<br/>F,9am-1pm<br/>Sa,9am-1pm<br/>Su,closed","address":"510 West 165th St. New York, NY 10032","phone":"(212) 568-0091","borough":"Manhattan"},"geometry":{"type":"Point","coordinates":[-73.93918699999999,40.837943]}},{"type":"Feature","properties":{"name":"Cauz for Pawz","website":"www.cauzforpawz.com","social":"","hours":"M,10am-7:30pm<br/>T,10am-7:30pm<br/>W,10am-7:30pm<br/>Th,10am-7:30pm<br/>F,10am-7:30pm<br/>Sa,10am-7:30pm<br/>Su,11am - 6pm","address":"212 E 23 St New York, NY 10010","phone":"(212) 684-7299","borough":"Manhattan"},"geometry":{"type":"Point","coordinates":[-73.9822731,40.7384405]}},{"type":"Feature","properties":{"name":"City Critters Inc at PETCO Kips Bay","website":"www.citycritters.org/help.html","social":"","hours":"M,closed<br/>T,closed<br/>W,closed<br/>Th,closed<br/>F,closed<br/>Sa,noon-6pm<br/>Su,noon-6pm","address":"560 2nd Ave. New York, NY 10016","phone":"(212) 252-3183","borough":"Manhattan"},"geometry":{"type":"Point","coordinates":[-73.9767267,40.7427494]}},{"type":"Feature","properties":{"name":"City Opera Thrift Shop","website":"","social":"","hours":"M,10am-7pm<br/>T,10am-7pm<br/>W,10am-7pm<br/>Th,10am-7pm<br/>F,10am-7pm<br/>Sa,10am-6pm<br/>Su,noon-5pm","address":"222 East 23rd Street New York, NY 10010","phone":"(212) 684-5344","borough":"Manhattan"},"geometry":{"type":"Point","coordinates":[-73.98210689999999,40.7382384]}},{"type":"Feature","properties":{"name":"Council Thrift Shop","website":"www.ncjwny.org/thrift.htm","social":"","hours":"M,11am-5:45pm<br/>T,11am-5:45pm<br/>W,11am-5:45pm<br/>Th,11am-7:45pm<br/>F,11am-4:45pm<br/>Sa,11am-4:45pm<br/>Su,noon-4:45pm","address":"246 East 84th St. New York, NY 10028","phone":"(212) 439-8373","borough":"Manhattan"},"geometry":{"type":"Point","coordinates":[-73.9531871,40.7766156]}},{"type":"Feature","properties":{"name":"Crutches 4 Kids - at Allen Hospital/Orthopadics","website":"www.crutches4kids.org","social":"facebook.com/crutches4kids","hours":"M,9am-5pm<br/>T,9am-5pm<br/>W,9am-5pm<br/>Th,9am-5pm<br/>F,9am-5pm<br/>Sa,closed<br/>Su,closed","address":"5141 Broadway New York, NY 10034","phone":"(212) 606-1000","borough":"Manhattan"},"geometry":{"type":"Point","coordinates":[-73.9126994,40.8730201]}},{"type":"Feature","properties":{"name":"Crutches 4 Kids - at Columbia Doctors Midtown - Orthopaedics","website":"www.crutches4kids.org","social":"facebook.com/crutches4kids","hours":"M,9am-5pm<br/>T,9am-5pm<br/>W,9am-5pm<br/>Th,9am-5pm<br/>F,9am-5pm<br/>Sa,closed<br/>Su,closed","address":"51 W 51st St New York, NY 10019","phone":"(212) 606-1000","borough":"Manhattan"},"geometry":{"type":"Point","coordinates":[-73.9793609,40.7604055]}},{"type":"Feature","properties":{"name":"American Society for the Prevention of Cruelty to Animals (ASPCA)","website":"http://www.aspca.org/","social":"facebook.com/aspca","hours":"M,11am-7pm<br/>T,11am-7pm<br/>W,11am-7pm<br/>Th,11am-7pm<br/>F,11am-7pm<br/>Sa,11am-7pm<br/>Su,11am-5pm","address":"424 East 92nd St. New York, NY 10128","phone":"(212) 876-7700","borough":"Manhattan"},"geometry":{"type":"Point","coordinates":[-73.9457082,40.7800761]}},{"type":"Feature","properties":{"name":"Angel Street Thrift Shop","website":"http://www.angelstreetthrift.org/","social":"","hours":"M,10am-6pm<br/>T,10am-6pm<br/>W,10am-6pm<br/>Th,10am-6pm<br/>F,10am-6pm<br/>Sa,10am-6pm<br/>Su,noon-5pm","address":"118 West 17th St. New York, NY 10011","phone":"(212) 229-0546","borough":"Manhattan"},"geometry":{"type":"Point","coordinates":[-73.9966851,40.73962150000001]}},{"type":"Feature","properties":{"name":"Animal Care and Control of New York City","website":"www.nycacc.org/getinvolved2.htm","social":"","hours":"M,8am-8pm<br/>T,8am-8pm<br/>W,8am-8pm<br/>Th,8am-8pm<br/>F,8am-8pm<br/>Sa,8am-8pm<br/>Su,8am-8pm","address":"326 East 110th St. New York, NY 10029","phone":"(212) 788-4000","borough":"Manhattan"},"geometry":{"type":"Point","coordinates":[-73.93944599999999,40.792454]}},{"type":"Feature","properties":{"name":"Arthritis Foundation Thrift Shop","website":"","social":"","hours":"M,call first<br/>T,call first<br/>W,call first<br/>Th,call first<br/>F,call first<br/>Sa,call first<br/>Su,closed","address":"1430 3rd Ave New York, NY 10028","phone":"(212) 772-8816","borough":"Manhattan"},"geometry":{"type":"Point","coordinates":[-73.9565329,40.77585699999999]}},{"type":"Feature","properties":{"name":"Baby Buggy","website":"http://www.babybuggy.org/","social":"facebook.com/pages/Baby-Buggy/56032852023","hours":"M,9am-5pm<br/>T,9am-5pm<br/>W,9am-5pm<br/>Th,9am-5pm<br/>F,9am-5pm<br/>Sa,closed<br/>Su,closed","address":"306 W. 37th St 8th Floor New York, NY 10018","phone":"(212) 736-1777","borough":"Manhattan"},"geometry":{"type":"Point","coordinates":[-73.9928193,40.75436699999999]}},{"type":"Feature","properties":{"name":"Barrier Free Living Inc","website":"http://www.bflnyc.org/","social":"","hours":"M,9am-5pm<br/>T,9am-5pm<br/>W,9am-5pm<br/>Th,9am-5pm<br/>F,9am-5pm<br/>Sa,closed<br/>Su,closed","address":"270 East 2nd St. New York, NY 10009","phone":"(212) 677-6668","borough":"Manhattan"},"geometry":{"type":"Point","coordinates":[-73.98033769999999,40.7209036]}},{"type":"Feature","properties":{"name":"Bide A Wee","website":"http://www.bideawee.org/","social":"","hours":"M,10am-5pm<br/>T,10am-5pm<br/>W,10am-7pm<br/>Th,10am-5pm<br/>F,10am-5pm<br/>Sa,10am-5pm<br/>Su,10am-4pm","address":"410 East 38th St. New York, NY 10016","phone":"(212) 532-6395","borough":"Manhattan"},"geometry":{"type":"Point","coordinates":[-73.970998,40.745874]}},{"type":"Feature","properties":{"name":"Bottomless Closet","website":"www.bottomlessclosetnyc.org/index.html","social":"facebook.com/pages/Bottomless-Closet-NYC/62203976556","hours":"M,9am-5pm<br/>T,9am-5pm<br/>W,9am-5pm<br/>Th,9am-5pm<br/>F,closed<br/>Sa,closed<br/>Su,closed","address":"15 Penn Plaza B-Level Suite 40 New York, NY 10001","phone":"(212) 563-2499","borough":"Manhattan"},"geometry":{"type":"Point","coordinates":[-73.9991637,40.75368539999999]}},{"type":"Feature","properties":{"name":"Bowery Mission","website":"http://www.bowery.org/","social":"","hours":"M,24 hours<br/>T,24 hours<br/>W,24 hours<br/>Th,24 hours<br/>F,24 hours<br/>Sa,24 hours<br/>Su,24 hours","address":"227 Bowery New York, NY 10002","phone":"(212) 674-3456","borough":"Manhattan"},"geometry":{"type":"Point","coordinates":[-73.992835,40.72196700000001]}},{"type":"Feature","properties":{"name":"Bowery Residents Committee (BRC) Los Vecinos SRO","website":"http://www.brc.org/","social":"","hours":"M,by appt<br/>T,by appt<br/>W,by appt<br/>Th,by appt<br/>F,by appt<br/>Sa,by appt<br/>Su,by appt","address":"93 Pitt Street New York, NY 10001","phone":"(212) 533-5151","borough":"Manhattan"},"geometry":{"type":"Point","coordinates":[-73.98255200000001,40.718866]}},{"type":"Feature","properties":{"name":"Society Of Saint Vincent De Paul","website":"www.svdpusa.org/Stores/tabid/62/Default.aspx?state=NY","social":"","hours":"M,9am-3pm<br/>T,9am-3pm<br/>W,9am-3pm<br/>Th,9am-3pm<br/>F,9am-3pm<br/>Sa,9am-3pm<br/>Su,closed","address":"7911 7th Ave Brooklyn, NY 11228","phone":"(718) 491-2525","borough":"Brooklyn"},"geometry":{"type":"Point","coordinates":[-74.019089,40.6232034]}},{"type":"Feature","properties":{"name":"St Marys Episcopal Church","website":"","social":"","hours":"M,9:30am-3pm<br/>T,9:30am-3pm<br/>W,9:30am-3pm<br/>Th,9:30am-3pm<br/>F,9:30am-3pm<br/>Sa,closed<br/>Su,closed","address":"230 Classon Ave. Brooklyn, NY 11205","phone":"(718) 529-6070","borough":"Brooklyn"},"geometry":{"type":"Point","coordinates":[-73.96110639999999,40.6926353]}},{"type":"Feature","properties":{"name":"Out of the Closet Thrift Store","website":"www.outofthecloset.org","social":"facebook.com/OutoftheClosetThriftStore","hours":"M,10am - 7pm<br/>T,10am - 7pm<br/>W,10am - 7pm<br/>Th,10am - 7pm<br/>F,10am - 7pm<br/>Sa,10am - 7pm<br/>Su,10am - 6pm","address":"475 Atlantic Ave Brooklyn, NY 11217","phone":"(718) 614-5949","borough":"Brooklyn"},"geometry":{"type":"Point","coordinates":[-73.9819924,40.6860878]}},{"type":"Feature","properties":{"name":"Religious Society of Friends","website":"www.brooklynmeeting.org","social":"","hours":"M,closed<br/>T,closed<br/>W,closed<br/>Th,closed<br/>F,closed<br/>Sa,closed<br/>Su,call first","address":"110 Schermerhorn St. Brooklyn, NY 11201","phone":"(212) 777-8866","borough":"Brooklyn"},"geometry":{"type":"Point","coordinates":[-73.9894619,40.6899483]}},{"type":"Feature","properties":{"name":"Salvation Army Thrift Store","website":"www.salvationarmy-usaeast.org","social":"","hours":"M,9am-5pm<br/>T,9am-5pm<br/>W,9am-5pm<br/>Th,9am-5pm<br/>F,9am-5pm<br/>Sa,9am-5pm<br/>Su,closed","address":"176 Bedford Ave. Brooklyn, NY 11211","phone":"(718) 388-9249","borough":"Brooklyn"},"geometry":{"type":"Point","coordinates":[-73.9576699,40.718027]}},{"type":"Feature","properties":{"name":"Salvation Army Thrift Store","website":"www.salvationarmy-usaeast.org","social":"","hours":"M,10am-7pm<br/>T,10am-7pm<br/>W,10am-7pm<br/>Th,10am-7pm<br/>F,10am-7pm<br/>Sa,10am-7pm<br/>Su,closed","address":"436 Atlantic Ave. Brooklyn, NY 11217","phone":"(718) 834-1562","borough":"Brooklyn"},"geometry":{"type":"Point","coordinates":[-73.9838984,40.6863101]}},{"type":"Feature","properties":{"name":"Salvation Army Thrift Store","website":"www.salvationarmy-usaeast.org","social":"","hours":"M,10am-6pm<br/>T,10am-6pm<br/>W,10am-6pm<br/>Th,10am-6pm<br/>F,10am-6pm<br/>Sa,10am-6pm<br/>Su,closed","address":"6822 3rd Ave. Brooklyn, NY 11220","phone":"(718) 833-6894","borough":"Brooklyn"},"geometry":{"type":"Point","coordinates":[-74.026158,40.636218]}},{"type":"Feature","properties":{"name":"Salvation Army Thrift Store","website":"www.salvationarmy-usaeast.org","social":"","hours":"M,10am-6pm<br/>T,10am-6pm<br/>W,10am-6pm<br/>Th,10am-6pm<br/>F,10am-6pm<br/>Sa,10am-7pm<br/>Su,closed","address":"981 Manhattan Ave. Brooklyn, NY 11222","phone":"(718) 383-5005","borough":"Brooklyn"},"geometry":{"type":"Point","coordinates":[-73.95496179999999,40.7326092]}},{"type":"Feature","properties":{"name":"Salvation Army Thrift Store","website":"www.salvationarmy-usaeast.org","social":"","hours":"M,10am-6:30pm<br/>T,10am-6:30pm<br/>W,10am-6:30pm<br/>Th,10am-6:30pm<br/>F,10am-8pm<br/>Sa,10am-8pm<br/>Su,closed","address":"3718 Nostrand Ave. Brooklyn, NY 11235","phone":"(718) 648-8930","borough":"Brooklyn"},"geometry":{"type":"Point","coordinates":[-73.940786,40.592733]}},{"type":"Feature","properties":{"name":"Salvation Army Thrift Store","website":"www.salvationarmy-usaeast.org","social":"","hours":"M,8:30am-5pm<br/>T,8:30am-5pm<br/>W,8:30am-5pm<br/>Th,8:30am-5pm<br/>F,8:30am-5pm<br/>Sa,8:30am-5pm<br/>Su,closed","address":"22 Quincy St. Brooklyn, NY 11238","phone":"(718) 622-5686","borough":"Brooklyn"},"geometry":{"type":"Point","coordinates":[-73.960619,40.6855509]}},{"type":"Feature","properties":{"name":"Sephardic Bikur Holim","website":"","social":"","hours":"M,9am-6pm<br/>T,9am-6pm<br/>W,9am-6pm<br/>Th,9am-6pm<br/>F,9am-6pm<br/>Sa,closed<br/>Su,9am-6pm","address":"1955 Mcdonald Ave Brooklyn, NY 11223","phone":"(718) 376-3914","borough":"Brooklyn"},"geometry":{"type":"Point","coordinates":[-73.9718989,40.604995]}},{"type":"Feature","properties":{"name":"Society Of Saint Vincent De Paul","website":"www.svdpusa.org/Stores/tabid/62/Default.aspx?state=NY","social":"","hours":"M,9am-3pm<br/>T,9am-3pm<br/>W,9am-3pm<br/>Th,9am-3pm<br/>F,9am-3pm<br/>Sa,9am-3pm<br/>Su,closed","address":"191 Joralemon St. Brooklyn, NY 11201","phone":"(718) 625-1400","borough":"Brooklyn"},"geometry":{"type":"Point","coordinates":[-73.991714,40.692835]}},{"type":"Feature","properties":{"name":"GrowNYC Clothing & Textile Recycling Collections","website":"www.grownyc.org/clothing","social":"facebook.com/GrowNYC","hours":"M,closed<br/>T,closed<br/>W,closed<br/>Th,closed<br/>F,closed<br/>Sa,8am-4:30pm<br/>Su,closed","address":"Brooklyn Borough Hall Greenmarket, Court St & Montague Brooklyn, NY 11201","phone":"(212) 788-7964","borough":"Brooklyn"},"geometry":{"type":"Point","coordinates":[-73.95,40.65]}},{"type":"Feature","properties":{"name":"GrowNYC Clothing & Textile Recycling Collections","website":"www.grownyc.org/clothing","social":"facebook.com/GrowNYC","hours":"M,closed<br/>T,closed<br/>W,closed<br/>Th,closed<br/>F,closed<br/>Sa,8am-2pm<br/>Su,closed","address":"McCarren Park Greenmarket, Union Ave and Driggs Brooklyn, NY 11211","phone":"(212) 788-7964","borough":"Brooklyn"},"geometry":{"type":"Point","coordinates":[-73.9536163,40.7064461]}},{"type":"Feature","properties":{"name":"GrowNYC Clothing & Textile Recycling Collections","website":"www.grownyc.org/clothing","social":"facebook.com/GrowNYC","hours":"M,closed<br/>T,closed<br/>W,closed<br/>Th,closed<br/>F,closed<br/>Sa,8am-3pm<br/>Su,closed","address":"Ft Greene Greenmarket, Washington Park at DeKalb Brooklyn, NY 11217","phone":"(212) 788-7964","borough":"Brooklyn"},"geometry":{"type":"Point","coordinates":[-73.9800645,40.6830069]}},{"type":"Feature","properties":{"name":"GrowNYC Clothing & Textile Recycling Collections","website":"www.grownyc.org/clothing","social":"facebook.com/GrowNYC","hours":"M,closed<br/>T,closed<br/>W,closed<br/>Th,closed<br/>F,closed<br/>Sa,closed<br/>Su,8am-2:30pm","address":"Carroll Gardens Greenmarket, Carroll St btw Smith and Court Brooklyn, NY 11231","phone":"(212) 788-7964","borough":"Brooklyn"},"geometry":{"type":"Point","coordinates":[-74.0094471,40.6772802]}},{"type":"Feature","properties":{"name":"GrowNYC Clothing & Textile Recycling Collections","website":"www.grownyc.org/clothing","social":"facebook.com/GrowNYC","hours":"M,closed<br/>T,closed<br/>W,closed<br/>Th,closed<br/>F,closed<br/>Sa,8am-4pm<br/>Su,closed","address":"Grand Army Plaza Greenmarket, NW corner of Prospect Park Brooklyn, NY 11238","phone":"(212) 788-7964","borough":"Brooklyn"},"geometry":{"type":"Point","coordinates":[-73.9691019,40.6599036]}},{"type":"Feature","properties":{"name":"Housing Works Thrift Shop","website":"www.housingworksauctions.com","social":"facebook.com/HousingWorksThrifts","hours":"M,11am-7pm<br/>T,11am-7pm<br/>W,11am-7pm<br/>Th,11am-7pm<br/>F,11am-7pm<br/>Sa,11am-7pm<br/>Su,noon-5pm","address":"122 Montague St Brooklyn, NY 11201","phone":"(718) 237-0521","borough":"Brooklyn"},"geometry":{"type":"Point","coordinates":[-73.99460499999999,40.69464199999999]}},{"type":"Feature","properties":{"name":"Less Aids Lesotho","website":"","social":"","hours":"M,by appt<br/>T,by appt<br/>W,by appt<br/>Th,by appt<br/>F,by appt<br/>Sa,by appt<br/>Su,by appt","address":"533 Sutter Ave Suite 3F Brooklyn, NY 11207","phone":"(646) 361-0891","borough":"Brooklyn"},"geometry":{"type":"Point","coordinates":[-73.899343,40.66896699999999]}},{"type":"Feature","properties":{"name":"Little Essentials","website":"www.littleessentials.org","social":"","hours":"M,2pm - 5pm<br/>T,2pm - 5pm<br/>W,closed<br/>Th,2pm - 5pm<br/>F,10am - 2pm<br/>Sa,closed<br/>Su,closed","address":"24 15th St Brooklyn, NY 11215","phone":"(347) 689-2327","borough":"Brooklyn"},"geometry":{"type":"Point","coordinates":[-73.996061,40.6687385]}},{"type":"Feature","properties":{"name":"Open Door Church Of God In Christ","website":"","social":"","hours":"M,7am-4pm<br/>T,7am-4pm<br/>W,7am-4pm<br/>Th,7am-4pm<br/>F,7am-4pm<br/>Sa,7am-4pm<br/>Su,7am-4pm","address":"999 Greene Ave. Brooklyn, NY 11221","phone":"(718) 455-3545","borough":"Brooklyn"},"geometry":{"type":"Point","coordinates":[-73.9268116,40.6912149]}},{"type":"Feature","properties":{"name":"Animal Care and Control of New York City","website":"www.nycacc.org/getinvolved2.htm","social":"","hours":"M,8am-8pm<br/>T,8am-8pm<br/>W,8am-8pm<br/>Th,8am-8pm<br/>F,8am-8pm<br/>Sa,8am-8pm<br/>Su,8am-8pm","address":"2336 Linden Blvd. Brooklyn, NY 11208","phone":"(212) 788-4000","borough":"Brooklyn"},"geometry":{"type":"Point","coordinates":[-73.876999,40.66423530000001]}},{"type":"Feature","properties":{"name":"Bikur Cholim","website":"","social":"","hours":"M,call first<br/>T,call first<br/>W,call first<br/>Th,call first<br/>F,call first<br/>Sa,closed<br/>Su,call first","address":"73 Tehama St Brooklyn, NY 11218","phone":"(718) 484-9354","borough":"Brooklyn"},"geometry":{"type":"Point","coordinates":[-73.982859,40.64382]}},{"type":"Feature","properties":{"name":"Brooklyn Animal Resource Coalition (BARC) & BQE Pet Supply","website":"www.barcshelter.org/donate/index.html","social":"","hours":"M,closed<br/>T,11am-7pm<br/>W,11am-7pm<br/>Th,11am-7pm<br/>F,11am-7pm<br/>Sa,11am-7pm<br/>Su,noon-5pm","address":"253 Wythe Ave. Williamsburg, NY 11211","phone":"(718) 486-7489","borough":"Brooklyn"},"geometry":{"type":"Point","coordinates":[-73.9637448,40.7161725]}},{"type":"Feature","properties":{"name":"Build It Green! NYC - Gowanus","website":"http://www.bignyc.org/","social":"facebook.com/bignyc","hours":"M,closed<br/>T,closed<br/>W,10am-6pm<br/>Th,10am-6pm<br/>F,10am-6pm<br/>Sa,10am-5pm<br/>Su,10am-5pm","address":"69 9th St. Brooklyn, NY 11215","phone":"(718) 725-8925","borough":"Brooklyn"},"geometry":{"type":"Point","coordinates":[-73.9956705,40.6737334]}},{"type":"Feature","properties":{"name":"Discipleship Turning Point","website":"tpdomi.org","social":"","hours":"M,8am-7:30pm<br/>T,8am-7:30pm<br/>W,8am-7:30pm<br/>Th,8am-7:30pm<br/>F,8am-6pm<br/>Sa,closed<br/>Su,closed","address":"5220 4th Ave. Brooklyn, NY 11220","phone":"(718) 439-0077","borough":"Brooklyn"},"geometry":{"type":"Point","coordinates":[-74.01434239999999,40.6450485]}},{"type":"Feature","properties":{"name":"Family Justice Center (FJC)","website":"www.nyc.gov/html/ocdv/html/fjc/fjc.shtml","social":"","hours":"M,9am-5pm<br/>T,9am-5pm<br/>W,9am-5pm<br/>Th,9am-5pm<br/>F,9am-5pm<br/>Sa,closed<br/>Su,closed","address":"350 Jay St. Brooklyn, NY 11201","phone":"(718) 250-5111","borough":"Brooklyn"},"geometry":{"type":"Point","coordinates":[-73.987866,40.6935684]}},{"type":"Feature","properties":{"name":"Giving For Living International","website":"http://www.givingforliving.org/","social":"","hours":"M,9-5<br/>T,9-5<br/>W,9-5<br/>Th,9-5<br/>F,9-5<br/>Sa,by appt<br/>Su,by appt","address":"251 53rd Street Brooklyn, NY 11220","phone":"(718) 439-8458","borough":"Brooklyn"},"geometry":{"type":"Point","coordinates":[-74.0171249,40.64675099999999]}},{"type":"Feature","properties":{"name":"Goodwill Thrift Shop - Livingston Store","website":"http://www.goodwillny.org/","social":"facebook.com/Goodwill.NewYorkNewJersey","hours":"M,10am-8pm<br/>T,10am-8pm<br/>W,10am-8pm<br/>Th,10am-8pm<br/>F,10am-8pm<br/>Sa,10am-8pm<br/>Su,10am-7pm","address":"258 Livingston St. Brooklyn, NY 11201","phone":"(718) 923-9037","borough":"Brooklyn"},"geometry":{"type":"Point","coordinates":[-73.98421309999999,40.6887457]}},{"type":"Feature","properties":{"name":"First Temple of the House of David","website":"","social":"","hours":"M,11am-noon<br/>T,3pm-6pm<br/>W,3:30pm-6pm<br/>Th,11am-noon<br/>F,10am-noon<br/>Sa,by appt<br/>Su,by appt","address":"744 Dumont Ave Brooklyn, NY 11207","phone":"(718) 345-6193","borough":"Brooklyn"},"geometry":{"type":"Point","coordinates":[-73.8911399,40.666585]}},{"type":"Feature","properties":{"name":"Goodwill Thrift Shop","website":"http://www.goodwillny.org/","social":"facebook.com/Goodwill.NewYorkNewJersey","hours":"M,10am-8pm<br/>T,10am-8pm<br/>W,10am-8pm<br/>Th,10am-8pm<br/>F,10am-8pm<br/>Sa,10am-8pm<br/>Su,10am-7pm","address":"1100-1104 Fulton St. Brooklyn, NY 11238","phone":"(718) 789-0856","borough":"Brooklyn"},"geometry":{"type":"Point","coordinates":[-73.956799,40.68108]}},{"type":"Feature","properties":{"name":"Salvation Army Thrift Store","website":"www.salvationarmy-usaeast.org","social":"","hours":"M,10am-8pm<br/>T,closed<br/>W,closed<br/>Th,10am-8pm<br/>F,closed<br/>Sa,closed<br/>Su,closed","address":"2359 Jerome Ave. Bronx, NY 10468","phone":"(718) 562-9023","borough":"Bronx"},"geometry":{"type":"Point","coordinates":[-73.90307750000001,40.860358]}},{"type":"Feature","properties":{"name":"Southeast Bronx Neighborhood Inc.","website":"www.sebnc.org","social":"","hours":"M,9am-5pm<br/>T,9am-5pm<br/>W,9am-5pm<br/>Th,9am-5pm<br/>F,9am-5pm<br/>Sa,9am-5pm<br/>Su,closed","address":"955 Tinton Ave. Bronx, NY 10456","phone":"(718) 542-2727","borough":"Bronx"},"geometry":{"type":"Point","coordinates":[-73.9027546,40.8236394]}},{"type":"Feature","properties":{"name":"United War Veterans Council (UWVC)","website":"www.uwvcpickup.org/","social":"facebook.com/unitedwarveterans","hours":"M,10am-8pm<br/>T,10am-8pm<br/>W,10am-8pm<br/>Th,10am-8pm<br/>F,10am-8pm<br/>Sa,11am-5pm<br/>Su,closed","address":"218 W 234th St Bronx, NY 10463","phone":"(888) 821-8982","borough":"Bronx"},"geometry":{"type":"Point","coordinates":[-73.90356539999999,40.8821301]}},{"type":"Feature","properties":{"name":"Word of Life International","website":"www.wordoflifefornewyorkcity.org","social":"","hours":"M,by appt<br/>T,11am-4pm<br/>W,11am-5pm<br/>Th,11am-4pm<br/>F,11am-4pm<br/>Sa,8am-5pm<br/>Su,by appt","address":"914 Prospect Avenue Bronx, NY 10459","phone":"(718) 861-5678","borough":"Bronx"},"geometry":{"type":"Point","coordinates":[-73.900573,40.821365]}},{"type":"Feature","properties":{"name":"World Vision Storehouse","website":"www.worldvision.org/uspny","social":"facebook.com/pages/World-Vision-Greater-New-York/172416006120457","hours":"M,10am-4pm<br/>T,10am-4pm<br/>W,10am-4pm<br/>Th,10am-4pm<br/>F,10am-4pm<br/>Sa,closed<br/>Su,closed","address":"885 E. 138th St. Bronx, NY 10454","phone":"(718) 292-5600","borough":"Bronx"},"geometry":{"type":"Point","coordinates":[-73.9074561,40.8027324]}}]}